학교ID,학교명,학교급구분,설립일자,설립형태,본교분교구분,운영상태,소재지지번주소,소재지도로명주소,시도교육청코드,시도교육청명,교육지원청코드,교육지원청명,생성일자,변경일자,위도,경도,데이터기준일자
B000013195,경일고등학교,고등학교,1973-03-01,사립,본교,운영,경상북도 안동시 신안동 산6-2,경상북도 안동시 치이골길 46,8750000,경상북도교육청,8791000,경상북도안동교육지원청,2013-11-29,2025-10-25,36.5749621699,128.7392948606,2026-03-20
B000013530,보문고등학교,고등학교,1975-03-05,사립,본교,운영,광주광역시 광산구 운수동 308,광주광역시 광산구 어등대로529번길 37,7380000,광주광역시교육청,7401000,광주광역시서부교육지원청,2013-11-29,2025-10-25,35.1538630655,126.776870489,2026-03-20
B000002807,대구내서초등학교,초등학교,1988-09-01,공립,본교,운영,대구광역시 서구 내당동 11-33,대구광역시 서구 달구벌대로371길 35,7240000,대구광역시교육청,7261000,대구광역시서부교육지원청,2013-11-29,2025-10-25,35.8638196375,128.5667600041,2026-03-20
B000007927,유림초등학교,초등학교,1932-09-26,공립,본교,운영,경상남도 함양군 유림면 화촌리 472,경상남도 함양군 유림면 천왕봉로 2927,9010000,경상남도교육청,9201000,경상남도함양교육지원청,2013-11-29,2025-10-25,35.4725210373,127.7930743723,2026-03-20
B000003875,호계초등학교,초등학교,1981-03-01,공립,본교,운영,경기도 안양시 동안구 호계동 923-17,경기도 안양시 동안구 경수대로707번길 27,7530000,경기도교육청,7569000,경기도안양과천교육지원청,2013-11-29,2025-10-25,37.3842709268,126.9501231552,2026-03-20
B000005736,조치원교동초등학교,초등학교,1945-10-05,공립,본교,운영,세종특별자치시 조치원읍 교리 1-12,세종특별자치시 조치원읍 새내18길 21,9300000,세종특별자치시교육청,9300000,세종특별자치시교육청,2013-11-29,2025-10-25,36.6052279351,127.2979421862,2026-03-20
B000009920,대성중학교,중학교,1951-09-01,사립,본교,운영,충청북도 청주시 흥덕구 신봉동 171-1,충청북도 청주시 흥덕구 사운로 342,8000000,충청북도교육청,8011000,충청북도청주교육지원청,2013-11-29,2025-10-25,36.658032803,127.4691294464,2026-03-20
B000022777,가재울고등학교,고등학교,2013-03-01,공립,본교,운영,서울특별시 서대문구 북가좌동 476,서울특별시 서대문구 수색로 100-35,7010000,서울특별시교육청,7031000,서울특별시서부교육지원청,2013-11-29,2025-10-25,37.574445874,126.9094147807,2026-03-20
B000007002,모아초등학교,초등학교,1949-12-01,공립,본교,운영,경상북도 경주시 천북면 모아리 588,경상북도 경주시 천북면 산업로 4974-5,8750000,경상북도교육청,8771000,경상북도경주교육지원청,2013-11-29,2025-10-25,35.9206086016,129.2466224776,2026-03-20
B000002704,반안초등학교,초등학교,2002-03-01,공립,본교,운영,부산광역시 해운대구 반여동 1164-6,부산광역시 해운대구 명장로67번길 40-42,7150000,부산광역시교육청,7211000,부산광역시해운대교육지원청,2013-11-29,2025-10-25,35.20293351,129.1132301927,2026-03-20
B000024106,대구봉무초등학교,초등학교,2013-03-01,공립,본교,운영,대구광역시 동구 봉무동 1527,대구광역시 동구 팔공로53길 30,7240000,대구광역시교육청,7251000,대구광역시동부교육지원청,2013-11-29,2025-10-25,35.9258001678,128.6374377,2026-03-20
B000013540,성신고등학교,고등학교,1988-03-03,사립,본교,운영,울산광역시 중구 복산동 352-2,울산광역시 중구 성신고교길 26,7480000,울산광역시교육청,7491000,울산광역시강북교육지원청,2013-11-29,2025-10-25,35.5627065646,129.3278415305,2026-03-20
B000011399,대구공업고등학교,고등학교,1925-04-01,공립,본교,운영,대구광역시 동구 신암동 811,대구광역시 동구 대현로 135,7240000,대구광역시교육청,7251000,대구광역시동부교육지원청,2013-11-29,2025-10-25,35.883212669,128.6141702085,2026-03-20
B000002750,대구동촌초등학교,초등학교,1945-11-23,공립,본교,운영,대구광역시 동구 방촌동 1047,대구광역시 동구 동촌로 168,7240000,대구광역시교육청,7251000,대구광역시동부교육지원청,2013-11-29,2025-10-25,35.8820279409,128.6589293128,2026-03-20
B000002764,대구효동초등학교,초등학교,1990-05-17,공립,본교,운영,대구광역시 동구 효목동 212-10,대구광역시 동구 효동로 78-7,7240000,대구광역시교육청,7251000,대구광역시동부교육지원청,2013-11-29,2025-10-25,35.8841262686,128.6447693,2026-03-20
B000022623,제석초등학교,초등학교,2015-03-01,공립,본교,운영,경상남도 통영시 광도면 죽림리 1583,경상남도 통영시 광도면 신죽1길 27,9010000,경상남도교육청,9071000,경상남도통영교육지원청,2013-11-29,2025-10-25,34.87573861,128.4165396829,2026-03-20
B000011312,고명외식고등학교,고등학교,1956-03-01,사립,본교,운영,서울특별시 성북구 돈암동 45-88,서울특별시 성북구 북악산로 870,7010000,서울특별시교육청,7121200,서울특별시성북강북교육지원청,2013-11-29,2025-10-25,37.5976746822,127.0191869257,2026-03-20
B000012217,경원고등학교,고등학교,1976-03-01,사립,본교,운영,대구광역시 달서구 용산동 6,대구광역시 달서구 새방로 77,7240000,대구광역시교육청,7271000,대구광역시남부교육지원청,2013-11-29,2025-10-25,35.8654793232,128.5256790425,2026-03-20
B000008723,대진중학교,중학교,2006-03-03,공립,본교,운영,대구광역시 달서구 대곡동 1036-1,대구광역시 달서구 화암로73길 7,7240000,대구광역시교육청,7271000,대구광역시남부교육지원청,2013-11-29,2025-10-25,35.8057257504,128.5195259393,2026-03-20
B000007621,산양초등학교풍화분교장,초등학교,1941-05-02,공립,분교,운영,경상남도 통영시 산양읍 풍화리 829-3,경상남도 통영시 산양읍 풍화일주로 388,9010000,경상남도교육청,9071000,경상남도통영교육지원청,2013-11-29,2025-10-25,34.8267798897,128.3580467157,2026-03-20
B000008237,상명대학교사범대학부속여자중학교,중학교,1967-03-07,사립,본교,운영,서울특별시 종로구 홍지동 7-1,서울특별시 종로구 홍지문2길 20,7010000,서울특별시교육청,7061000,서울특별시중부교육지원청,2013-11-29,2025-10-25,37.6041089059,126.9551594966,2026-03-20
B000002095,상명대학교사범대학부속초등학교,초등학교,1966-05-17,사립,본교,운영,서울특별시 종로구 홍지동 56,서울특별시 종로구 홍지문2길 1,7010000,서울특별시교육청,7061000,서울특별시중부교육지원청,2013-11-29,2025-10-25,37.6004405635,126.9567149183,2026-03-20
B000003331,삼도초등학교,초등학교,1921-10-02,공립,본교,운영,광주광역시 광산구 도덕동 327,광주광역시 광산구 용진로 9,7380000,광주광역시교육청,7401000,광주광역시서부교육지원청,2013-11-29,2025-10-25,35.1643748006,126.700855862,2026-03-20
B000009774,왕산중학교,중학교,1970-06-09,공립,본교,운영,강원특별자치도 강릉시 왕산면 도마리 325-18,강원특별자치도 강릉시 왕산면 백두대간로 2005,7801000,강원특별자치도교육청,7832000,강원특별자치도강릉교육지원청,2013-11-29,2025-10-25,37.6729714734,128.8367696292,2026-03-20
B000002256,서울원촌초등학교,초등학교,1979-09-01,공립,본교,운영,서울특별시 서초구 반포동 21,서울특별시 서초구 사평대로45길 26,7010000,서울특별시교육청,7091300,서울특별시강남서초교육지원청,2013-11-29,2025-10-25,37.5061894794,127.0125656334,2026-03-20
B000002849,대구태암초등학교,초등학교,2000-03-01,공립,본교,운영,대구광역시 북구 태전동 1076-8,대구광역시 북구 칠곡중앙대로52길 56,7240000,대구광역시교육청,7261000,대구광역시서부교육지원청,2013-11-29,2025-10-25,35.9230872798,128.5505021285,2026-03-20
B000010159,청양중학교,중학교,1931-09-01,공립,본교,운영,충청남도 청양군 청양읍 송방리 133-1,충청남도 청양군 청양읍 칠갑산로 179,8140000,충청남도교육청,8251000,충청남도청양교육지원청,2013-11-29,2025-10-25,36.4523246567,126.7955599813,2026-03-20
B000003409,신탄진용정초등학교,초등학교,1979-03-01,공립,본교,운영,대전광역시 대덕구 신탄진동 50,대전광역시 대덕구 대청로 65,7430000,대전광역시교육청,7441000,대전광역시동부교육지원청,2013-11-29,2025-10-25,36.4542227176,127.4360305372,2026-03-20
B000008691,복현중학교,중학교,1986-03-01,공립,본교,운영,대구광역시 북구 복현동 316-6,대구광역시 북구 동북로65길 28,7240000,대구광역시교육청,7261000,대구광역시서부교육지원청,2013-11-29,2025-10-25,35.8939410221,128.6279505727,2026-03-20
B000022832,인천한빛초등학교,초등학교,2012-05-01,공립,본교,운영,인천광역시 남동구 서창동 694,인천광역시 남동구 서창남순환로 190-28,7310000,인천광역시교육청,7341000,인천광역시동부교육지원청,2013-11-29,2025-10-25,37.4241951197,126.7441353198,2026-03-20
B000004101,시흥은행초등학교,초등학교,1995-09-01,공립,본교,운영,경기도 시흥시 은행동 545,경기도 시흥시 대은로104번길 29-10,7530000,경기도교육청,7781000,경기도시흥교육지원청,2013-11-29,2025-10-25,37.4425862757,126.8007226555,2026-03-20
B000006816,청해초등학교,초등학교,1941-08-01,공립,본교,운영,전라남도 완도군 완도읍 장좌리 600,전라남도 완도군 완도읍 청해진로 1374,8490000,전라남도교육청,8701000,전라남도완도교육지원청,2013-11-29,2025-10-25,34.3594161743,126.7278074639,2026-03-20
B000025212,인천포스코고등학교,고등학교,2015-03-01,사립,본교,운영,인천광역시 연수구 송도동 15-6,인천광역시 연수구 컨벤시아대로42번길 50,7310000,인천광역시교육청,7341000,인천광역시동부교육지원청,2013-11-29,2025-10-25,37.401466006,126.6483623398,2026-03-20
B000004270,광명남초등학교,초등학교,1975-03-05,공립,본교,운영,경기도 광명시 광명동 295-58,경기도 광명시 광명로 866-9,7530000,경기도교육청,7591000,경기도광명교육지원청,2013-11-29,2025-10-25,37.475127085,126.8537024423,2026-03-20
B000005187,양구초등학교,초등학교,1911-04-01,공립,본교,운영,강원특별자치도 양구군 양구읍 상리 199-4,강원특별자치도 양구군 양구읍 양구새싹로 48,7801000,강원특별자치도교육청,7952000,강원특별자치도양구교육지원청,2013-11-29,2025-10-25,38.1029082347,127.9914525088,2026-03-20
B000024401,서진초등학교,초등학교,2014-03-03,공립,본교,운영,경상남도 진주시 평거동 800,경상남도 진주시 새평거로 85,9010000,경상남도교육청,9051000,경상남도진주교육지원청,2013-11-29,2025-10-25,35.1690196298,128.056654955,2026-03-20
B000012187,함지고등학교,고등학교,2008-03-01,공립,본교,운영,대구광역시 북구 구암동 488-3,대구광역시 북구 학정로48길 46,7240000,대구광역시교육청,7261000,대구광역시서부교육지원청,2013-11-29,2025-10-25,35.9278684091,128.5605124825,2026-03-20
B000006285,무주초등학교,초등학교,1909-09-03,공립,본교,운영,전북특별자치도 무주군 무주읍 읍내리 343,전북특별자치도 무주군 무주읍 향한로 43,8321000,전북특별자치도교육청,8412000,전북특별자치도무주교육지원청,2013-11-29,2025-10-25,36.0102783603,127.6603152276,2026-03-20
B000005218,거성초등학교,초등학교,1969-03-08,공립,본교,운영,강원특별자치도 고성군 거진읍 거진리 180,강원특별자치도 고성군 거진읍 거성길 38,7801000,강원특별자치도교육청,7972000,강원특별자치도고성교육지원청,2013-11-29,2025-10-25,38.452581078,128.4571605718,2026-03-20
B000009392,송운중학교,중학교,1996-03-01,공립,본교,운영,경기도 시흥시 정왕동 1875-4,경기도 시흥시 옥구천동로 433-11,7530000,경기도교육청,7781000,경기도시흥교육지원청,2013-11-29,2025-10-25,37.3594106674,126.7314079689,2026-03-20
B000002531,운산초등학교,초등학교,1989-05-06,공립,본교,운영,부산광역시 남구 용호동 776,부산광역시 남구 용호로269번길 89,7150000,부산광역시교육청,7181000,부산광역시남부교육지원청,2013-11-29,2025-10-25,35.11020374,129.1152252,2026-03-20
B000012100,경남고등학교,고등학교,1942-04-30,공립,본교,운영,부산광역시 서구 동대신동3가 1-1,부산광역시 서구 망양로111번길 65,7150000,부산광역시교육청,7171000,부산광역시서부교육지원청,2013-11-29,2025-10-25,35.1201981033,129.0200403799,2026-03-20
B000002543,용호초등학교,초등학교,1964-09-22,공립,본교,운영,부산광역시 남구 용호동 75-1,부산광역시 남구 용호로42번길 94,7150000,부산광역시교육청,7181000,부산광역시남부교육지원청,2013-11-29,2025-10-25,35.1224793,129.108986,2026-03-20
B000002753,대구불로초등학교,초등학교,1984-04-06,공립,본교,운영,대구광역시 동구 불로동 1017,대구광역시 동구 방천로3길 19,7240000,대구광역시교육청,7251000,대구광역시동부교육지원청,2013-11-29,2025-10-25,35.8974803455,128.6335019624,2026-03-20
B000011009,용원중학교,중학교,2009-03-01,공립,본교,운영,경상남도 창원시 진해구 용원동 1231,경상남도 창원시 진해구 용원로77번길 16,9010000,경상남도교육청,9022000,경상남도창원교육지원청,2013-11-29,2025-10-25,35.099655045,128.8179931625,2026-03-20
B000011848,울산예술고등학교,고등학교,1993-03-09,사립,본교,운영,울산광역시 울주군 웅촌면 대복리 475-1,울산광역시 울주군 웅촌면 웅촌로 621-6,7480000,울산광역시교육청,7501000,울산광역시강남교육지원청,2013-11-29,2025-10-25,35.4818641003,129.2162737751,2026-03-20
B000025316,신용중학교,중학교,2014-03-01,공립,본교,운영,광주광역시 북구 신용동 672,광주광역시 북구 첨단연신로133번길 32,7380000,광주광역시교육청,7391000,광주광역시동부교육지원청,2013-11-29,2025-10-25,35.2107844988,126.860960948,2026-03-20
B000006705,송지초등학교,초등학교,1923-11-01,공립,본교,운영,전라남도 해남군 송지면 산정리 724-1,전라남도 해남군 송지면 산정1길 101,8490000,전라남도교육청,8641000,전라남도해남교육지원청,2013-11-29,2025-10-25,34.3689216781,126.5204055083,2026-03-20
B000009731,강원체육중학교,중학교,2005-03-02,공립,본교,운영,강원특별자치도 춘천시 송암동 산1-1,강원특별자치도 춘천시 자라우새길 126,7801000,강원특별자치도교육청,7812000,강원특별자치도춘천교육지원청,2013-11-29,2025-10-25,37.8591222889,127.6948040314,2026-03-20
B000009833,봉래중학교,중학교,1982-03-05,공립,본교,운영,강원특별자치도 영월군 영월읍 덕포리 374,강원특별자치도 영월군 영월읍 중리1길 172-17,7801000,강원특별자치도교육청,7902000,강원특별자치도영월교육지원청,2013-11-29,2025-10-25,37.1816281829,128.4858655437,2026-03-20
B000012405,울산제일고등학교,고등학교,1988-03-01,사립,본교,운영,울산광역시 남구 옥동 910-1,울산광역시 남구 남부순환도로 107,7480000,울산광역시교육청,7501000,울산광역시강남교육지원청,2013-11-29,2025-10-25,35.542589439,129.2681645,2026-03-20
B000003548,울산중앙초등학교,초등학교,1972-03-11,공립,본교,운영,울산광역시 남구 신정동 592-2,울산광역시 남구 돋질로91번길 34,7480000,울산광역시교육청,7501000,울산광역시강남교육지원청,2013-11-29,2025-10-25,35.5411434445,129.3155287208,2026-03-20
B000009729,봄내중학교,중학교,1934-04-10,공립,본교,운영,강원특별자치도 춘천시 효자동 214-4,강원특별자치도 춘천시 공지로200번길 36,7801000,강원특별자치도교육청,7812000,강원특별자치도춘천교육지원청,2013-11-29,2025-10-25,37.8654675365,127.7407637,2026-03-20
B000012774,육민관고등학교,고등학교,1946-03-15,사립,본교,운영,강원특별자치도 원주시 흥업면 흥업리 734,강원특별자치도 원주시 흥업면 북원로 1800,7801000,강원특별자치도교육청,7822000,강원특별자치도원주교육지원청,2013-11-29,2025-10-25,37.3093635675,127.9184855026,2026-03-20
B000012412,남목고등학교,고등학교,2008-03-01,공립,본교,운영,울산광역시 동구 서부동 728,울산광역시 동구 방어진순환도로 1200,7480000,울산광역시교육청,7491000,울산광역시강북교육지원청,2013-11-29,2025-10-25,35.53801042,129.4187517,2026-03-20
B000004104,시흥장현초등학교,초등학교,2003-03-01,공립,본교,운영,경기도 시흥시 장현동 169-6,경기도 시흥시 시청로80번길 5,7530000,경기도교육청,7781000,경기도시흥교육지원청,2013-11-29,2025-10-25,37.3817577838,126.7991022105,2026-03-20
B000025756,인천청호초등학교,초등학교,2021-03-01,공립,본교,운영,인천광역시 서구 청라동 140-2,인천광역시 서구 청라한울로 44,7310000,인천광역시교육청,7361000,인천광역시서부교육지원청,2013-11-29,2025-10-25,37.5386448875,126.6415165316,2026-03-20
B000012388,동대전고등학교,고등학교,1983-03-10,공립,본교,운영,대전광역시 대덕구 중리동 234-3,대전광역시 대덕구 청림길 33,7430000,대전광역시교육청,7441000,대전광역시동부교육지원청,2013-11-29,2025-10-25,36.3562871409,127.4236428246,2026-03-20
B000005729,복수초등학교,초등학교,1929-04-20,공립,본교,운영,충청남도 금산군 복수면 곡남리 180,충청남도 금산군 복수면 복수로 137,8140000,충청남도교육청,8201000,충청남도금산교육지원청,2013-11-29,2025-10-25,36.1661922455,127.3978080338,2026-03-20
B000008640,동촌중학교,중학교,1979-03-01,공립,본교,운영,대구광역시 동구 방촌동 1051-2,대구광역시 동구 동촌로 176,7240000,대구광역시교육청,7251000,대구광역시동부교육지원청,2013-11-29,2025-10-25,35.8820279409,128.6589293128,2026-03-20
B000004955,북삼초등학교,초등학교,1946-01-24,공립,본교,운영,강원특별자치도 동해시 지흥동 124-1,강원특별자치도 동해시 지양길 77,7801000,강원특별자치도교육청,7842000,강원특별자치도동해교육지원청,2013-11-29,2025-10-25,37.4956557859,129.1009681324,2026-03-20
B000009476,가림중학교,중학교,1991-03-01,공립,본교,운영,경기도 광명시 하안동 261,경기도 광명시 오리로 616,7530000,경기도교육청,7591000,경기도광명교육지원청,2013-11-29,2025-10-25,37.457643081,126.8796742172,2026-03-20
B000012199,대구여자고등학교,고등학교,1954-06-21,공립,본교,운영,대구광역시 수성구 범어동 238-41,대구광역시 수성구 달구벌대로488길 17,7240000,대구광역시교육청,7251000,대구광역시동부교육지원청,2013-11-29,2025-10-25,35.85650935,128.6298640457,2026-03-20
B000009369,궁내중학교,중학교,1994-03-01,공립,본교,운영,경기도 군포시 산본동 1149-5,경기도 군포시 수리산로 171,7530000,경기도교육청,7642000,경기도군포의왕교육지원청,2013-11-29,2025-10-25,37.3638863554,126.9190775805,2026-03-20
B000022573,군포신기초등학교,초등학교,2012-09-01,공립,본교,운영,경기도 군포시 부곡동 1208,경기도 군포시 삼성로28번길 3,7530000,경기도교육청,7642000,경기도군포의왕교육지원청,2013-11-29,2025-10-25,37.3386448693,126.932781188,2026-03-20
B000025726,아산테크노중학교,중학교,2017-03-01,공립,본교,운영,충청남도 아산시 둔포면 석곡리 1782,충청남도 아산시 둔포면 아산밸리북로 32,8140000,충청남도교육청,8181000,충청남도아산교육지원청,2013-11-29,2025-10-25,36.92648648,127.0518272,2026-03-20
B000012251,인천만수고등학교,고등학교,2008-03-03,공립,본교,운영,인천광역시 남동구 만수동 605-5,인천광역시 남동구 장승로 91,7310000,인천광역시교육청,7341000,인천광역시동부교육지원청,2013-11-29,2025-10-25,37.44709898,126.7422696652,2026-03-20
B000001867,서울면동초등학교,초등학교,1978-09-01,공립,본교,운영,서울특별시 중랑구 면목동 551,서울특별시 중랑구 면목로57길 32,7010000,서울특별시교육청,7021000,서울특별시동부교육지원청,2013-11-29,2025-10-25,37.5853515242,127.0865921933,2026-03-20
B000007925,병곡초등학교,초등학교,1932-09-30,공립,본교,운영,경상남도 함양군 병곡면 송평리 80,경상남도 함양군 병곡면 휴촌길 21,9010000,경상남도교육청,9201000,경상남도함양교육지원청,2013-11-29,2025-10-25,35.52900882,127.690250335,2026-03-20
B000025146,별빛중학교,중학교,2016-03-01,공립,본교,운영,경상북도 영천시 고경면 해선리 240-3,경상북도 영천시 고경면 월천길 1-27,8750000,경상북도교육청,8821000,경상북도영천교육지원청,2013-11-29,2025-10-25,36.0023291156,129.0432454632,2026-03-20
B000012883,진천고등학교,고등학교,1977-03-05,공립,본교,운영,충청북도 진천군 진천읍 신정리 590,충청북도 진천군 진천읍 문화12길 48,8000000,충청북도교육청,8081000,충청북도진천교육지원청,2013-11-29,2025-10-25,36.8539549016,127.4499541749,2026-03-20
B000009840,옥동중학교,중학교,1971-01-04,공립,본교,운영,강원특별자치도 영월군 김삿갓면 옥동리 402,강원특별자치도 영월군 김삿갓면 영월동로 1664,7801000,강원특별자치도교육청,7902000,강원특별자치도영월교육지원청,2013-11-29,2025-10-25,37.12816565,128.570666751,2026-03-20
B000005098,옥동초등학교,초등학교,1925-10-01,공립,본교,운영,강원특별자치도 영월군 김삿갓면 옥동리 429,강원특별자치도 영월군 김삿갓면 영월동로 1679,7801000,강원특별자치도교육청,7902000,강원특별자치도영월교육지원청,2013-11-29,2025-10-25,37.1304805973,128.5698387468,2026-03-20
B000011177,양주중학교,중학교,1970-03-16,공립,본교,운영,경상남도 양산시 상북면 석계리 51,경상남도 양산시 상북면 양주마을2길 18,9010000,경상남도교육청,9151000,경상남도양산교육지원청,2013-11-29,2025-10-25,35.4151766475,129.0677567691,2026-03-20
B000009324,서천중학교,중학교,2011-03-01,공립,본교,운영,경기도 용인시 기흥구 서천동 796,경기도 용인시 기흥구 서천동로 7,7530000,경기도교육청,7751000,경기도용인교육지원청,2013-11-29,2025-10-25,37.2400191102,127.0758949119,2026-03-20
B000008523,성동중학교,중학교,1972-06-03,공립,본교,운영,부산광역시 남구 문현동 791,부산광역시 남구 남동천로 38,7150000,부산광역시교육청,7181000,부산광역시남부교육지원청,2013-11-29,2025-10-25,35.1399333923,129.0662634841,2026-03-20
B000006985,안강초등학교,초등학교,1946-02-01,공립,본교,운영,경상북도 경주시 안강읍 안강리 398-1,경상북도 경주시 안강읍 비화원로 34,8750000,경상북도교육청,8771000,경상북도경주교육지원청,2013-11-29,2025-10-25,35.9911290515,129.2291697,2026-03-20
B000002841,대구칠곡초등학교,초등학교,1912-04-01,공립,본교,운영,대구광역시 북구 읍내동 794,대구광역시 북구 칠곡중앙대로110길 5,7240000,대구광역시교육청,7261000,대구광역시서부교육지원청,2013-11-29,2025-10-25,35.9451708689,128.5517244,2026-03-20
B000008928,광주화정중학교,중학교,1979-09-01,공립,본교,운영,광주광역시 서구 화정동 647-7,광주광역시 서구 화운로 53,7380000,광주광역시교육청,7401000,광주광역시서부교육지원청,2013-11-29,2025-10-25,35.1441252947,126.8823690932,2026-03-20
B000012097,혜광고등학교,고등학교,1955-03-29,사립,본교,운영,부산광역시 중구 보수동1가 2-420,부산광역시 중구 망양로259번길 5,7150000,부산광역시교육청,7171000,부산광역시서부교육지원청,2013-11-29,2025-10-25,35.1087998229,129.0246054037,2026-03-20
B000005089,봉래초등학교,초등학교,1946-05-20,공립,본교,운영,강원특별자치도 영월군 영월읍 덕포리 557,강원특별자치도 영월군 영월읍 중앙로 168-17,7801000,강원특별자치도교육청,7902000,강원특별자치도영월교육지원청,2013-11-29,2025-10-25,37.1771174715,128.4749780677,2026-03-20
B000009832,영월중학교,중학교,1946-09-18,공립,본교,운영,강원특별자치도 영월군 영월읍 영흥리 716-1,강원특별자치도 영월군 영월읍 오무개길 51,7801000,강원특별자치도교육청,7902000,강원특별자치도영월교육지원청,2013-11-29,2025-10-25,37.1905944289,128.4711873761,2026-03-20
B000002129,서울가원초등학교,초등학교,1989-03-01,공립,본교,운영,서울특별시 송파구 문정동 150-10,서울특별시 송파구 중대로4길 8,7010000,서울특별시교육청,7130000,서울특별시강동송파교육지원청,2013-11-29,2025-10-25,37.4894421483,127.1110273898,2026-03-20
B000022744,모전중학교,중학교,2014-03-01,공립,본교,운영,부산광역시 기장군 정관읍 모전리 720,부산광역시 기장군 정관읍 정관1로 9,7150000,부산광역시교육청,7211000,부산광역시해운대교육지원청,2013-11-29,2025-10-25,35.3381187313,129.1621538,2026-03-20
B000009788,상장중학교,중학교,1983-12-31,공립,본교,운영,강원특별자치도 태백시 황지동 123,강원특별자치도 태백시 태백로 1221,7801000,강원특별자치도교육청,7852000,강원특별자치도태백교육지원청,2013-11-29,2025-10-25,37.1506861111,128.9921216823,2026-03-20
B000005015,맹방초등학교,초등학교,1946-12-12,공립,본교,운영,강원특별자치도 삼척시 근덕면 상맹방리 171-2,강원특별자치도 삼척시 근덕면 삼척로 3884-4,7801000,강원특별자치도교육청,7872000,강원특별자치도삼척교육지원청,2013-11-29,2025-10-25,37.3985267608,129.2127768063,2026-03-20
B000009803,미로중학교,중학교,1971-04-21,공립,본교,운영,강원특별자치도 삼척시 미로면 하거노리 449,강원특별자치도 삼척시 미로면 강원남부로 3907,7801000,강원특별자치도교육청,7872000,강원특별자치도삼척교육지원청,2013-11-29,2025-10-25,37.4104154106,129.1038914526,2026-03-20
B000002295,서울신구초등학교,초등학교,1981-11-03,공립,본교,운영,서울특별시 강남구 신사동 550-11,서울특별시 강남구 압구정로18길 28,7010000,서울특별시교육청,7091300,서울특별시강남서초교육지원청,2013-11-29,2025-10-25,37.52336057,127.0239924,2026-03-20
B000007934,거창초등학교,초등학교,1907-06-01,공립,본교,운영,경상남도 거창군 거창읍 중앙리 311,경상남도 거창군 거창읍 아림로 48,9010000,경상남도교육청,9211000,경상남도거창교육지원청,2013-11-29,2025-10-25,35.687531603,127.9100891506,2026-03-20
B000008561,동래여자중학교,중학교,1895-10-15,사립,본교,운영,부산광역시 금정구 구서동 67,부산광역시 금정구 체육공원로 20,7150000,부산광역시교육청,7191000,부산광역시동래교육지원청,2013-11-29,2025-10-25,35.2470423418,129.0981971987,2026-03-20
B000003295,유안초등학교,초등학교,1991-03-01,공립,본교,운영,광주광역시 남구 봉선동 124,광주광역시 남구 봉선로175번길 16,7380000,광주광역시교육청,7401000,광주광역시서부교육지원청,2013-11-29,2025-10-25,35.125485398,126.9146862351,2026-03-20
B000001877,서울봉화초등학교,초등학교,1996-09-19,공립,본교,운영,서울특별시 중랑구 신내동 655,서울특별시 중랑구 신내로15길 110,7010000,서울특별시교육청,7021000,서울특별시동부교육지원청,2013-11-29,2025-10-25,37.6135762311,127.0924084885,2026-03-20
B000002770,영신초등학교,초등학교,1965-03-10,사립,본교,운영,대구광역시 동구 봉무동 524,대구광역시 동구 팔공로50길 32,7240000,대구광역시교육청,7251000,대구광역시동부교육지원청,2013-11-29,2025-10-25,35.9200042205,128.6464240151,2026-03-20
B000005687,서령초등학교,초등학교,1948-09-01,공립,본교,운영,충청남도 서산시 죽성동 77-2,충청남도 서산시 남부순환로 749,8140000,충청남도교육청,8191000,충청남도서산교육지원청,2013-11-29,2025-10-25,36.7442166462,126.4470036283,2026-03-20
B000008630,동아중학교,중학교,1946-03-10,사립,본교,운영,부산광역시 수영구 광안동 1222-23,부산광역시 수영구 호암로 55,7150000,부산광역시교육청,7211000,부산광역시해운대교육지원청,2013-11-29,2025-10-25,35.1567809228,129.1069839794,2026-03-20
B000004967,통리초등학교,초등학교,1955-03-01,공립,본교,운영,강원특별자치도 태백시 통동 69-8,강원특별자치도 태백시 통골2길 9,7801000,강원특별자치도교육청,7852000,강원특별자치도태백교육지원청,2013-11-29,2025-10-25,37.1667352748,129.0354652161,2026-03-20
B000011355,단국대학교부속소프트웨어고등학교,고등학교,1941-05-25,사립,본교,운영,서울특별시 강남구 대치동 1013,서울특별시 강남구 도곡로64길 21,7010000,서울특별시교육청,7091300,서울특별시강남서초교육지원청,2013-11-29,2025-10-25,37.49562483,127.0577682,2026-03-20
B000008256,방산중학교,중학교,1991-03-01,공립,본교,운영,서울특별시 송파구 방이동 220,서울특별시 송파구 오금로29길 31,7010000,서울특별시교육청,7130000,서울특별시강동송파교육지원청,2013-11-29,2025-10-25,37.5093728737,127.1218756115,2026-03-20
B000008365,봉은중학교,중학교,1986-03-01,공립,본교,운영,서울특별시 강남구 삼성동 82-7,서울특별시 강남구 영동대로128길 59,7010000,서울특별시교육청,7091300,서울특별시강남서초교육지원청,2013-11-29,2025-10-25,37.51897667,127.0623894,2026-03-20
B000003396,대전대화초등학교,초등학교,1982-11-25,공립,본교,운영,대전광역시 대덕구 대화동 244-5,대전광역시 대덕구 대화로 242-36,7430000,대전광역시교육청,7441000,대전광역시동부교육지원청,2013-11-29,2025-10-25,36.3626922107,127.411344133,2026-03-20
B000023141,도담고등학교,고등학교,2013-03-01,공립,본교,운영,세종특별자치시 도담동 642,세종특별자치시 보듬4로 41,9300000,세종특별자치시교육청,9300000,세종특별자치시교육청,2013-11-29,2025-10-25,36.51420716,127.2634446,2026-03-20
B000003430,가수원초등학교,초등학교,1946-10-26,공립,본교,운영,대전광역시 서구 가수원동 471,대전광역시 서구 벌곡로 1359,7430000,대전광역시교육청,7451000,대전광역시서부교육지원청,2013-11-29,2025-10-25,36.302393709,127.3530021137,2026-03-20
B000001876,서울중화초등학교,초등학교,1946-11-07,공립,본교,운영,서울특별시 중랑구 신내동 531,서울특별시 중랑구 신내로7가길 22,7010000,서울특별시교육청,7021000,서울특별시동부교육지원청,2013-11-29,2025-10-25,37.6029216254,127.0940649949,2026-03-20
B000008924,금호중앙중학교,중학교,1959-12-26,사립,본교,운영,광주광역시 북구 운암동 140,광주광역시 북구 금호로 100,7380000,광주광역시교육청,7391000,광주광역시동부교육지원청,2013-11-29,2025-10-25,35.1785968979,126.885512579,2026-03-20
B000011103,월산중학교,중학교,2001-03-01,공립,본교,운영,경상남도 김해시 부곡동 806-10,경상남도 김해시 월산로 104,9010000,경상남도교육청,9091000,경상남도김해교육지원청,2013-11-29,2025-10-25,35.2052618291,128.803941683,2026-03-20
B000003476,대전하기초등학교,초등학교,2005-03-01,공립,본교,운영,대전광역시 유성구 하기동 514,대전광역시 유성구 송림로19번길 32,7430000,대전광역시교육청,7451000,대전광역시서부교육지원청,2013-11-29,2025-10-25,36.3886314463,127.321529,2026-03-20
B000002058,서울상월초등학교,초등학교,1990-03-01,공립,본교,운영,서울특별시 노원구 상계동 697,서울특별시 노원구 동일로221길 27,7010000,서울특별시교육청,7051000,서울특별시북부교육지원청,2013-11-29,2025-10-25,37.6586522394,127.0569799722,2026-03-20
B000008184,선유중학교,중학교,1985-03-05,공립,본교,운영,서울특별시 영등포구 양평동3가 82,서울특별시 영등포구 선유로 213,7010000,서울특별시교육청,7041000,서울특별시남부교육지원청,2013-11-29,2025-10-25,37.5332864655,126.8943293,2026-03-20
B000001868,서울중목초등학교,초등학교,1997-09-01,공립,본교,운영,서울특별시 중랑구 면목동 180-5,서울특별시 중랑구 동일로 665,7010000,서울특별시교육청,7021000,서울특별시동부교육지원청,2013-11-29,2025-10-25,37.5900873503,127.0793361,2026-03-20
B000012028,독산고등학교,고등학교,2002-03-02,공립,본교,운영,서울특별시 금천구 독산동 907-34,서울특별시 금천구 문성로 64,7010000,서울특별시교육청,7041000,서울특별시남부교육지원청,2013-11-29,2025-10-25,37.47621872,126.9109732,2026-03-20
B000005742,연봉초등학교,초등학교,1946-09-01,공립,본교,운영,세종특별자치시 연서면 봉암리 210-2,세종특별자치시 연서면 당산로 357-1,9300000,세종특별자치시교육청,9300000,세종특별자치시교육청,2013-11-29,2025-10-25,36.564452742,127.2820714359,2026-03-20
B000005745,연남초등학교,초등학교,1908-04-01,공립,본교,운영,세종특별자치시 연기면 연기리 397,세종특별자치시 연기면 연기길 2,9300000,세종특별자치시교육청,9300000,세종특별자치시교육청,2013-11-29,2025-10-25,36.5438808251,127.2778469542,2026-03-20
B000005744,수왕초등학교,초등학교,1973-03-01,공립,본교,운영,세종특별자치시 연기면 눌왕리 324,세종특별자치시 연기면 눌왕길 8-45,9300000,세종특별자치시교육청,9300000,세종특별자치시교육청,2013-11-29,2025-10-25,36.5434735853,127.2522261383,2026-03-20
B000010586,산이중학교,중학교,1967-03-17,공립,본교,운영,전라남도 해남군 산이면 초송리 527,전라남도 해남군 산이면 비석길 98-2,8490000,전라남도교육청,8641000,전라남도해남교육지원청,2013-11-29,2025-10-25,34.6454587759,126.4481955649,2026-03-20
B000009470,광남중학교,중학교,1982-03-05,공립,본교,운영,경기도 광명시 광명동 384-6,경기도 광명시 광명로 785,7530000,경기도교육청,7591000,경기도광명교육지원청,2013-11-29,2025-10-25,37.4700747468,126.8475588292,2026-03-20
B000013346,김해임호고등학교,고등학교,2012-03-01,공립,본교,운영,경상남도 김해시 외동 715-2,경상남도 김해시 분성로3번길 77,9010000,경상남도교육청,9091000,경상남도김해교육지원청,2013-11-29,2025-10-25,35.2382686393,128.8527201085,2026-03-20
B000011200,하동중앙중학교,중학교,1961-09-01,공립,본교,운영,경상남도 하동군 하동읍 읍내리 667,경상남도 하동군 하동읍 연화길 77,9010000,경상남도교육청,9181000,경상남도하동교육지원청,2013-11-29,2025-10-25,35.0766444637,127.7495276199,2026-03-20
B000003402,신탄진초등학교,초등학교,1908-09-01,공립,본교,운영,대전광역시 대덕구 석봉동 308-7,대전광역시 대덕구 석봉로3번길 50,7430000,대전광역시교육청,7441000,대전광역시동부교육지원청,2013-11-29,2025-10-25,36.4489849899,127.4225034856,2026-03-20
B000002008,서울영림초등학교,초등학교,1982-10-04,공립,본교,운영,서울특별시 영등포구 대림동 993-16,서울특별시 영등포구 시흥대로173길 14,7010000,서울특별시교육청,7041000,서울특별시남부교육지원청,2013-11-29,2025-10-25,37.4873460123,126.9025393,2026-03-20
B000002469,서천초등학교,초등학교,1985-03-01,공립,본교,운영,부산광역시 사하구 감천동 506-1,부산광역시 사하구 감천로105번길 10,7150000,부산광역시교육청,7171000,부산광역시서부교육지원청,2013-11-29,2025-10-25,35.0887415608,129.0038498,2026-03-20
B000002848,대구관천초등학교,초등학교,1993-09-01,공립,본교,운영,대구광역시 북구 태전동 999-2,대구광역시 북구 구암로22길 17,7240000,대구광역시교육청,7261000,대구광역시서부교육지원청,2013-11-29,2025-10-25,35.93053458,128.5520401332,2026-03-20
B000003352,산내초등학교,초등학교,1920-06-20,공립,본교,운영,대전광역시 동구 낭월동 632,대전광역시 동구 산내로 1292,7430000,대전광역시교육청,7441000,대전광역시동부교육지원청,2013-11-29,2025-10-25,36.2797981938,127.4700660292,2026-03-20
B000002125,서울평화초등학교,초등학교,1992-09-01,공립,본교,운영,서울특별시 송파구 가락동 106,서울특별시 송파구 송파대로26길 22,7010000,서울특별시교육청,7130000,서울특별시강동송파교육지원청,2013-11-29,2025-10-25,37.4915671218,127.1228236584,2026-03-20
B000003362,대전성남초등학교,초등학교,1952-04-15,공립,본교,운영,대전광역시 동구 성남동 193-5,대전광역시 동구 성남로32번길 5,7430000,대전광역시교육청,7441000,대전광역시동부교육지원청,2013-11-29,2025-10-25,36.3439443285,127.4293686795,2026-03-20
B000012076,방산고등학교,고등학교,2003-03-01,공립,본교,운영,서울특별시 송파구 방이동 220-5,서울특별시 송파구 오금로27길 18,7010000,서울특별시교육청,7130000,서울특별시강동송파교육지원청,2013-11-29,2025-10-25,37.50831315,127.1204696387,2026-03-20
B000008269,세륜중학교,중학교,1992-03-01,공립,본교,운영,서울특별시 송파구 오금동 7-3,서울특별시 송파구 양재대로72길 41,7010000,서울특별시교육청,7130000,서울특별시강동송파교육지원청,2013-11-29,2025-10-25,37.50893314,127.1312464,2026-03-20
B000003292,진남초등학교,초등학교,2007-11-26,공립,본교,운영,광주광역시 남구 노대동 732,광주광역시 남구 효우로60번길 12,7380000,광주광역시교육청,7401000,광주광역시서부교육지원청,2013-11-29,2025-10-25,35.1091272169,126.9024720855,2026-03-20
B000008068,의귀초등학교,초등학교,1959-02-20,공립,본교,운영,제주특별자치도 서귀포시 남원읍 의귀리 1483-3,제주특별자치도 서귀포시 남원읍 한신로 213,9290000,제주특별자치도교육청,9299000,제주특별자치도서귀포시교육지원청,2013-11-29,2025-10-25,33.31111895,126.714628,2026-03-20
B000002202,서울양원초등학교,초등학교,1991-05-06,공립,본교,운영,서울특별시 양천구 신월동 40-1,서울특별시 양천구 화곡로 16,7010000,서울특별시교육청,7081300,서울특별시강서양천교육지원청,2013-11-29,2025-10-25,37.5382173279,126.8231052242,2026-03-20
B000008405,남서울중학교,중학교,1964-11-12,공립,본교,운영,서울특별시 관악구 신림동 1690-3,서울특별시 관악구 남부순환로172길 97,7010000,서울특별시교육청,7132000,서울특별시동작관악교육지원청,2013-11-29,2025-10-25,37.4821362472,126.9210371353,2026-03-20
B000011104,율하중학교,중학교,2010-03-01,공립,본교,운영,경상남도 김해시 율하동 1293,경상남도 김해시 율하1로 39,9010000,경상남도교육청,9091000,경상남도김해교육지원청,2013-11-29,2025-10-25,35.1750809823,128.8080009586,2026-03-20
B000012153,삼성여자고등학교,고등학교,1975-03-03,사립,본교,운영,부산광역시 사하구 감천동 598,부산광역시 사하구 감천로43번길 45,7150000,부산광역시교육청,7171000,부산광역시서부교육지원청,2013-11-29,2025-10-25,35.0942249708,128.998232842,2026-03-20
B000007846,좌삼초등학교,초등학교,1946-09-20,공립,본교,운영,경상남도 양산시 상북면 좌삼리 493,경상남도 양산시 상북면 수서로 275-16,9010000,경상남도교육청,9151000,경상남도양산교육지원청,2013-11-29,2025-10-25,35.441025787,129.0434677833,2026-03-20
B000011160,영산중학교,중학교,1951-06-25,공립,본교,운영,경상남도 창녕군 영산면 서리 253,경상남도 창녕군 영산면 영산계성로 87,9010000,경상남도교육청,9141000,경상남도창녕교육지원청,2013-11-29,2025-10-25,35.4601690997,128.5242737449,2026-03-20
B000007805,유어초등학교,초등학교,1926-10-01,공립,본교,운영,경상남도 창녕군 유어면 부곡리 481,경상남도 창녕군 유어면 마수원길 39,9010000,경상남도교육청,9141000,경상남도창녕교육지원청,2013-11-29,2025-10-25,35.5094463658,128.411012375,2026-03-20
B000002310,서울동작초등학교,초등학교,1983-04-06,공립,본교,운영,서울특별시 동작구 사당동 산9-1,서울특별시 동작구 동작대로29길 214,7010000,서울특별시교육청,7132000,서울특별시동작관악교육지원청,2013-11-29,2025-10-25,37.49410161,126.9765088,2026-03-20
B000012048,서울문영여자고등학교,고등학교,1992-03-01,사립,본교,운영,서울특별시 관악구 봉천동 1695,서울특별시 관악구 관악로 85,7010000,서울특별시교육청,7132000,서울특별시동작관악교육지원청,2013-11-29,2025-10-25,37.4729045675,126.9509180628,2026-03-20
B000002198,서울갈산초등학교,초등학교,1988-03-01,공립,본교,운영,서울특별시 양천구 신정동 330-10,서울특별시 양천구 목동로 31,7010000,서울특별시교육청,7081300,서울특별시강서양천교육지원청,2013-11-29,2025-10-25,37.5123715649,126.8702298754,2026-03-20
B000002049,서울태랑초등학교,초등학교,2001-09-01,공립,본교,운영,서울특별시 노원구 공릉동 116,서울특별시 노원구 화랑로51나길 31,7010000,서울특별시교육청,7051000,서울특별시북부교육지원청,2013-11-29,2025-10-25,37.6262505607,127.0906030782,2026-03-20
B000002065,서울한천초등학교,초등학교,1984-05-07,공립,본교,운영,서울특별시 노원구 월계동 3-7,서울특별시 노원구 마들로 45,7010000,서울특별시교육청,7051000,서울특별시북부교육지원청,2013-11-29,2025-10-25,37.6207093619,127.0692435268,2026-03-20
B000002467,괴정초등학교,초등학교,1970-03-01,공립,본교,운영,부산광역시 사하구 괴정동 230,부산광역시 사하구 낙동대로 152,7150000,부산광역시교육청,7171000,부산광역시서부교육지원청,2013-11-29,2025-10-25,35.103763964,128.9997579256,2026-03-20
B000003436,대전관저초등학교,초등학교,1997-09-01,공립,본교,운영,대전광역시 서구 관저동 992,대전광역시 서구 관저동로 161,7430000,대전광역시교육청,7451000,대전광역시서부교육지원청,2013-11-29,2025-10-25,36.3065592418,127.3399114515,2026-03-20
B000026788,대구국우초등학교,초등학교,2022-03-01,공립,본교,운영,대구광역시 북구 국우동 1163,대구광역시 북구 도남중앙로10길 45,7240000,대구광역시교육청,7261000,대구광역시서부교육지원청,2013-11-29,2025-10-25,35.9558227918,128.5856952,2026-03-20
B000007725,무안초등학교,초등학교,1921-04-21,공립,본교,운영,경상남도 밀양시 무안면 무안리 927-1,경상남도 밀양시 무안면 사명로 531,9010000,경상남도교육청,9101000,경상남도밀양교육지원청,2013-11-29,2025-10-25,35.4729283026,128.651293,2026-03-20
B000012181,영신고등학교,고등학교,1946-10-17,사립,본교,운영,대구광역시 동구 봉무동 524,대구광역시 동구 팔공로50길 32,7240000,대구광역시교육청,7251000,대구광역시동부교육지원청,2013-11-29,2025-10-25,35.9200042205,128.6464240151,2026-03-20
B000022613,거제장평중학교,중학교,2013-03-01,공립,본교,운영,경상남도 거제시 장평동 148,경상남도 거제시 장평4로 40,9010000,경상남도교육청,9111000,경상남도거제교육지원청,2013-11-29,2025-10-25,34.8860856898,128.6064665442,2026-03-20
B000022983,연무여자중학교,중학교,1969-11-18,사립,본교,운영,충청남도 논산시 연무읍 동산리 879,충청남도 논산시 연무읍 동안로887번길 5,8140000,충청남도교육청,8222000,충청남도논산계룡교육지원청,2013-11-29,2025-10-25,36.1353646633,127.1046327793,2026-03-20
B000002721,기장초등학교,초등학교,1911-07-01,공립,본교,운영,부산광역시 기장군 기장읍 동부리 320,부산광역시 기장군 기장읍 읍내로 69,7150000,부산광역시교육청,7211000,부산광역시해운대교육지원청,2013-11-29,2025-10-25,35.2457721711,129.2127656357,2026-03-20
B000012154,성일여자고등학교,고등학교,1988-03-01,사립,본교,운영,부산광역시 사하구 신평동 60-1,부산광역시 사하구 다대로 161,7150000,부산광역시교육청,7171000,부산광역시서부교육지원청,2013-11-29,2025-10-25,35.0894995116,128.9800626422,2026-03-20
B000007661,칠산초등학교,초등학교,1945-03-01,공립,본교,운영,경상남도 김해시 화목동 773-1,경상남도 김해시 칠산로413번길 16-2,9010000,경상남도교육청,9091000,경상남도김해교육지원청,2013-11-29,2025-10-25,35.2100164919,128.851541459,2026-03-20
B000007938,북상초등학교,초등학교,1928-07-01,공립,본교,운영,경상남도 거창군 북상면 갈계리 1439-1,경상남도 거창군 북상면 송계로 731-18,9010000,경상남도교육청,9211000,경상남도거창교육지원청,2013-11-29,2025-10-25,35.7800958508,127.8170386284,2026-03-20
B000013479,대영고등학교,고등학교,1987-12-15,공립,본교,운영,서울특별시 영등포구 신길동 336-2,서울특별시 영등포구 도림로86길 16,7010000,서울특별시교육청,7041000,서울특별시남부교육지원청,2013-11-29,2025-10-25,37.50366109,126.9058657,2026-03-20
B000002754,대구아양초등학교,초등학교,1958-04-07,공립,본교,운영,대구광역시 동구 신암동 1463,대구광역시 동구 아양로 221,7240000,대구광역시교육청,7251000,대구광역시동부교육지원청,2013-11-29,2025-10-25,35.8874626807,128.6374337595,2026-03-20
B000009024,가수원중학교,중학교,1988-03-05,공립,본교,운영,대전광역시 서구 가수원동 806-18,대전광역시 서구 가수원로 26,7430000,대전광역시교육청,7451000,대전광역시서부교육지원청,2013-11-29,2025-10-25,36.2984721121,127.3545579779,2026-03-20
B000008657,동원중학교,중학교,1985-03-01,공립,본교,운영,대구광역시 수성구 만촌동 254,대구광역시 수성구 효행로2길 81,7240000,대구광역시교육청,7251000,대구광역시동부교육지원청,2013-11-29,2025-10-25,35.8758564239,128.6510708013,2026-03-20
B000002213,서울양동초등학교,초등학교,1972-08-11,공립,본교,운영,서울특별시 양천구 신정동 941,서울특별시 양천구 오목로23길 24,7010000,서울특별시교육청,7081300,서울특별시강서양천교육지원청,2013-11-29,2025-10-25,37.5258482641,126.851240195,2026-03-20
B000011810,한국과학영재학교,고등학교,1991-03-04,국립,본교,운영,부산광역시 부산진구 당감동 899,부산광역시 부산진구 백양관문로 105-47,7150000,부산광역시교육청,7181000,부산광역시남부교육지원청,2013-11-29,2025-10-25,35.1652001148,129.0257843961,2026-03-20
B000012208,대구남산고등학교,고등학교,1953-01-31,사립,본교,운영,대구광역시 수성구 수성동1가 96-16,대구광역시 수성구 신천동로 364,7240000,대구광역시교육청,7251000,대구광역시동부교육지원청,2013-11-29,2025-10-25,35.857312471,128.6091788104,2026-03-20
B000026354,고헌중학교,중학교,2020-03-01,공립,본교,운영,울산광역시 북구 화봉동 1485-1,울산광역시 북구 박상진2로 81,7480000,울산광역시교육청,7491000,울산광역시강북교육지원청,2013-11-29,2025-10-25,35.5977791514,129.3640269925,2026-03-20
B000002653,서감초등학교,초등학교,1984-03-30,공립,본교,운영,부산광역시 사상구 감전동 122-1,부산광역시 사상구 괘감로 64,7150000,부산광역시교육청,7201000,부산광역시북부교육지원청,2013-11-29,2025-10-25,35.15782029,128.9820602,2026-03-20
B000011816,부일외국어고등학교,고등학교,1995-03-01,사립,본교,운영,부산광역시 사하구 감천동 634-61,부산광역시 사하구 감천로73번길 36,7150000,부산광역시교육청,7171000,부산광역시서부교육지원청,2013-11-29,2025-10-25,35.0907360857,129.0025604447,2026-03-20
B000003499,성안초등학교,초등학교,1962-03-01,공립,본교,운영,울산광역시 중구 성안동 797-1,울산광역시 중구 함월14길 19,7480000,울산광역시교육청,7491000,울산광역시강북교육지원청,2013-11-29,2025-10-25,35.5765611863,129.3124344389,2026-03-20
B000008486,다송중학교,중학교,1993-03-05,공립,본교,운영,부산광역시 사하구 다대동 95,부산광역시 사하구 다송로 55,7150000,부산광역시교육청,7171000,부산광역시서부교육지원청,2013-11-29,2025-10-25,35.0643498863,128.9847861841,2026-03-20
B000005840,합천초등학교,초등학교,1970-03-01,공립,본교,운영,충청남도 청양군 화성면 산정리 243,충청남도 청양군 화성면 무한로 88,8140000,충청남도교육청,8251000,충청남도청양교육지원청,2013-11-29,2025-10-25,36.4258647601,126.714611207,2026-03-20
B000010266,군산대성중학교,중학교,1966-03-11,사립,본교,운영,전북특별자치도 군산시 임피면 읍내리 535-4,전북특별자치도 군산시 임피면 임피향교길 44-6,8321000,전북특별자치도교육청,8342000,전북특별자치도군산교육지원청,2013-11-29,2025-10-25,35.9886302282,126.8486974363,2026-03-20
B000002773,대구동문초등학교,초등학교,1982-12-06,공립,본교,운영,대구광역시 수성구 만촌동 262,대구광역시 수성구 효행로2길 111,7240000,대구광역시교육청,7251000,대구광역시동부교육지원청,2013-11-29,2025-10-25,35.87481761,128.652425782,2026-03-20
B000008343,원촌중학교,중학교,1983-03-01,공립,본교,운영,서울특별시 서초구 반포동 22,서울특별시 서초구 사평대로45길 10,7010000,서울특별시교육청,7091300,서울특별시강남서초교육지원청,2013-11-29,2025-10-25,37.5063251047,127.0146997242,2026-03-20
B000012197,경상여자고등학교,고등학교,1957-05-25,사립,본교,운영,대구광역시 북구 침산동 810-1,대구광역시 북구 침산남로9길 164,7240000,대구광역시교육청,7261000,대구광역시서부교육지원청,2013-11-29,2025-10-25,35.9005419608,128.5878438625,2026-03-20
B000025605,일광초등학교,초등학교,1927-04-23,공립,본교,운영,부산광역시 기장군 일광읍 삼성리 774,부산광역시 기장군 일광읍 해빛로 46,7150000,부산광역시교육청,7211000,부산광역시해운대교육지원청,2013-11-29,2025-10-25,35.2681181013,129.2229034,2026-03-20
B000004857,춘천삼육초등학교,초등학교,1955-04-01,사립,본교,운영,강원특별자치도 춘천시 동면 장학리 568-1,강원특별자치도 춘천시 동면 방죽길 56-10,7801000,강원특별자치도교육청,7812000,강원특별자치도춘천교육지원청,2013-11-29,2025-10-25,37.9115968118,127.7543199888,2026-03-20
B000008281,정신여자중학교,중학교,1887-10-20,사립,본교,운영,서울특별시 송파구 잠실동 50-4,서울특별시 송파구 올림픽로4길 16,7010000,서울특별시교육청,7130000,서울특별시강동송파교육지원청,2013-11-29,2025-10-25,37.5094538398,127.0738473292,2026-03-20
B000008521,덕명여자중학교,중학교,1953-07-14,사립,본교,운영,부산광역시 부산진구 전포동 487,부산광역시 부산진구 봉수로 13,7150000,부산광역시교육청,7181000,부산광역시남부교육지원청,2013-11-29,2025-10-25,35.1510804366,129.0704518695,2026-03-20
B000013532,대전여자고등학교,고등학교,1937-05-01,공립,본교,운영,대전광역시 동구 대동 16-2,대전광역시 동구 용운로1번길 28-37,7430000,대전광역시교육청,7441000,대전광역시동부교육지원청,2013-11-29,2025-10-25,36.3300126828,127.4463706929,2026-03-20
B000008551,남산중학교,중학교,1991-03-01,공립,본교,운영,부산광역시 금정구 남산동 31-11,부산광역시 금정구 금단로 114,7150000,부산광역시교육청,7191000,부산광역시동래교육지원청,2013-11-29,2025-10-25,35.2598170185,129.0936509,2026-03-20
B000002580,남산초등학교,초등학교,1987-03-01,공립,본교,운영,부산광역시 금정구 남산동 126-1,부산광역시 금정구 금강로 614,7150000,부산광역시교육청,7191000,부산광역시동래교육지원청,2013-11-29,2025-10-25,35.2621406521,129.0891842339,2026-03-20
B000013375,양산제일고등학교,고등학교,1994-03-01,사립,본교,운영,경상남도 양산시 교동 273,경상남도 양산시 회현1길 36,9010000,경상남도교육청,9151000,경상남도양산교육지원청,2013-11-29,2025-10-25,35.3445999186,129.0237990314,2026-03-20
B000025289,서울송례초등학교,초등학교,2014-03-03,공립,본교,운영,서울특별시 송파구 장지동 898,서울특별시 송파구 위례순환로 439,7010000,서울특별시교육청,7130000,서울특별시강동송파교육지원청,2013-11-29,2025-10-25,37.4778912972,127.1384402263,2026-03-20
B000025291,송례중학교,중학교,2014-03-04,공립,본교,운영,서울특별시 송파구 장지동 899,서울특별시 송파구 위례순환로 429,7010000,서울특별시교육청,7130000,서울특별시강동송파교육지원청,2013-11-29,2025-10-25,37.4778330101,127.1397415,2026-03-20
B000008697,관천중학교,중학교,1994-03-01,공립,본교,운영,대구광역시 북구 태전동 999-1,대구광역시 북구 구암로22길 7,7240000,대구광역시교육청,7261000,대구광역시서부교육지원청,2013-11-29,2025-10-25,35.9311638604,128.552613261,2026-03-20
B000010205,송산중학교,중학교,1981-03-06,공립,본교,운영,충청남도 당진시 송산면 도문리 169-1,충청남도 당진시 송산면 도문로 48,8140000,충청남도교육청,8291000,충청남도당진교육지원청,2013-11-29,2025-10-25,36.934811,126.6859161,2026-03-20
B000009391,시화중학교,중학교,2006-03-01,공립,본교,운영,경기도 시흥시 정왕동 1552,경기도 시흥시 큰솔로52번길 23,7530000,경기도교육청,7781000,경기도시흥교육지원청,2013-11-29,2025-10-25,37.3409855472,126.7561913467,2026-03-20
B000011099,관동중학교,중학교,2004-03-01,공립,본교,운영,경상남도 김해시 관동동 422-1,경상남도 김해시 덕정로 77,9010000,경상남도교육청,9091000,경상남도김해교육지원청,2013-11-29,2025-10-25,35.17976521,128.7926332674,2026-03-20
B000013258,영양여자고등학교,고등학교,1973-03-04,사립,본교,운영,경상북도 영양군 영양읍 동부리 5,경상북도 영양군 영양읍 영양창수로 141,8750000,경상북도교육청,8891000,경상북도영양교육지원청,2013-11-29,2025-10-25,36.6618880785,129.1297625928,2026-03-20
B000012550,성복고등학교,고등학교,2011-03-01,공립,본교,운영,경기도 용인시 수지구 성복동 782,경기도 용인시 수지구 도마치로 92,7530000,경기도교육청,7751000,경기도용인교육지원청,2013-11-29,2025-10-25,37.323363436,127.0611228,2026-03-20
B000008631,기장중학교,중학교,1954-07-22,공립,본교,운영,부산광역시 기장군 기장읍 대라리 40,부산광역시 기장군 기장읍 읍내로 120,7150000,부산광역시교육청,7211000,부산광역시해운대교육지원청,2013-11-29,2025-10-25,35.244881874,129.2183149164,2026-03-20
B000009916,운호중학교,중학교,1968-03-06,사립,본교,운영,충청북도 청주시 서원구 모충동 132-13,충청북도 청주시 서원구 무심서로 375,8000000,충청북도교육청,8011000,충청북도청주교육지원청,2013-11-29,2025-10-25,36.6250531729,127.4851868215,2026-03-20
B000013541,문현고등학교,고등학교,2006-03-01,공립,본교,운영,울산광역시 동구 방어동 1008,울산광역시 동구 화잠7길 25,7480000,울산광역시교육청,7491000,울산광역시강북교육지원청,2013-11-29,2025-10-25,35.4823956492,129.4091804391,2026-03-20
B000010194,만리포중학교,중학교,1968-03-22,공립,본교,운영,충청남도 태안군 소원면 신덕리 631-2,충청남도 태안군 소원면 소근로 63-12,8140000,충청남도교육청,8281000,충청남도태안교육지원청,2013-11-29,2025-10-25,36.76552125,126.193931148,2026-03-20
B000022914,춘천여자고등학교,고등학교,1934-04-10,공립,본교,운영,강원특별자치도 춘천시 동면 만천리 756,강원특별자치도 춘천시 동면 만천양지길 95,7801000,강원특별자치도교육청,7812000,강원특별자치도춘천교육지원청,2013-11-29,2025-10-25,37.8884898904,127.7635403168,2026-03-20
B000023838,대전원신흥중학교,중학교,2022-03-01,공립,본교,운영,대전광역시 유성구 원신흥동 526,대전광역시 유성구 동서대로735번길 20,7430000,대전광역시교육청,7451000,대전광역시서부교육지원청,2013-11-29,2025-10-25,36.33301958,127.3453452,2026-03-20
B000008651,공산중학교,중학교,1954-04-23,사립,본교,운영,대구광역시 동구 백안동 560-5,대구광역시 동구 팔공로197길 26,7240000,대구광역시교육청,7251000,대구광역시동부교육지원청,2013-11-29,2025-10-25,35.9550658566,128.6906837898,2026-03-20
B000011923,상명대학교사범대학부속여자고등학교,고등학교,1967-03-07,사립,본교,운영,서울특별시 종로구 홍지동 7-1,서울특별시 종로구 홍지문2길 20,7010000,서울특별시교육청,7061000,서울특별시중부교육지원청,2013-11-29,2025-10-25,37.6041089059,126.9551594966,2026-03-20
B000005327,세성초등학교,초등학교,1936-04-01,공립,본교,운영,충청북도 충주시 살미면 세성리 147,충청북도 충주시 살미면 매남이길 31,8000000,충청북도교육청,8021000,충청북도충주교육지원청,2013-11-29,2025-10-25,36.90479486,127.969248168,2026-03-20
B000007980,도리초등학교,초등학교,1946-12-01,공립,본교,운영,제주특별자치도 제주시 도두일동 2430-1,제주특별자치도 제주시 도리로 129,9290000,제주특별자치도교육청,9296000,제주특별자치도제주시교육지원청,2013-11-29,2025-10-25,33.5018561661,126.4654959465,2026-03-20
B000002915,대구장산초등학교,초등학교,1999-03-01,공립,본교,운영,대구광역시 달서구 용산동 957,대구광역시 달서구 장산로 30,7240000,대구광역시교육청,7271000,대구광역시남부교육지원청,2013-11-29,2025-10-25,35.8548374203,128.5265017727,2026-03-20
B000004971,철암초등학교,초등학교,1941-11-11,공립,본교,운영,강원특별자치도 태백시 철암동 341-2,강원특별자치도 태백시 동태백로 584,7801000,강원특별자치도교육청,7852000,강원특별자치도태백교육지원청,2013-11-29,2025-10-25,37.1217467491,129.0429224234,2026-03-20
B000009113,울산중앙중학교,중학교,1980-03-02,공립,본교,운영,울산광역시 남구 신정동 859-3,울산광역시 남구 중앙로63번길 5,7480000,울산광역시교육청,7501000,울산광역시강남교육지원청,2013-11-29,2025-10-25,35.5260242954,129.315680477,2026-03-20
B000025338,수완하나중학교,중학교,2015-03-01,공립,본교,운영,광주광역시 광산구 수완동 973,광주광역시 광산구 수완로105번길 47,7380000,광주광역시교육청,7401000,광주광역시서부교육지원청,2013-11-29,2025-10-25,35.1942080769,126.8275241623,2026-03-20
B000003174,양도초등학교,초등학교,1908-04-01,공립,본교,운영,인천광역시 강화군 양도면 삼흥리 288,인천광역시 강화군 양도면 강화남로 1036,7310000,인천광역시교육청,7351000,인천광역시강화교육지원청,2013-11-29,2025-10-25,37.68897162,126.4193695438,2026-03-20
B000008385,남성중학교,중학교,1983-03-01,공립,본교,운영,서울특별시 동작구 사당동 304-45,서울특별시 동작구 남부순환로269길 166,7010000,서울특별시교육청,7132000,서울특별시동작관악교육지원청,2013-11-29,2025-10-25,37.4790082238,126.972489,2026-03-20
B000004087,서해초등학교,초등학교,1996-11-01,공립,본교,운영,경기도 시흥시 정왕동 1867-2,경기도 시흥시 정왕대로53번길 14,7530000,경기도교육청,7781000,경기도시흥교육지원청,2013-11-29,2025-10-25,37.3561223736,126.7251311893,2026-03-20
B000026753,계룡대실초등학교,초등학교,2025-03-01,공립,본교,운영,충청남도 계룡시 두마면 농소리 974,충청남도 계룡시 두마면 대실남북로 113,8140000,충청남도교육청,8222000,충청남도논산계룡교육지원청,2013-11-29,2025-10-25,36.2609321638,127.2561417674,2026-03-20
B000008031,고산초등학교,초등학교,1945-05-01,공립,본교,운영,제주특별자치도 제주시 한경면 고산리 2684-1,제주특별자치도 제주시 한경면 고산로1길 16,9290000,제주특별자치도교육청,9296000,제주특별자치도제주시교육지원청,2013-11-29,2025-10-25,33.3045269693,126.1768734874,2026-03-20
B000025226,인천송일초등학교,초등학교,2015-09-01,공립,본교,운영,인천광역시 연수구 송도동 107,인천광역시 연수구 컨벤시아대로252번길 15,7310000,인천광역시교육청,7341000,인천광역시동부교육지원청,2013-11-29,2025-10-25,37.3841880193,126.6351350059,2026-03-20
B000025193,인천만월초등학교,초등학교,1989-03-01,공립,본교,운영,인천광역시 남동구 구월동 1521,인천광역시 남동구 선수촌로 28,7310000,인천광역시교육청,7341000,인천광역시동부교육지원청,2013-11-29,2025-10-25,37.4418066158,126.7155207513,2026-03-20
B000009263,대안여자중학교,중학교,1986-05-06,공립,본교,운영,경기도 안양시 동안구 호계동 1231,경기도 안양시 동안구 흥안대로223번길 46,7530000,경기도교육청,7569000,경기도안양과천교육지원청,2013-11-29,2025-10-25,37.377159104,126.9651001857,2026-03-20
B000009058,대전하기중학교,중학교,2006-03-01,공립,본교,운영,대전광역시 유성구 하기동 520,대전광역시 유성구 송림로48번길 6-30,7430000,대전광역시교육청,7451000,대전광역시서부교육지원청,2013-11-29,2025-10-25,36.3858890732,127.3222049388,2026-03-20
B000026215,목감고등학교,고등학교,2020-03-01,공립,본교,운영,경기도 시흥시 조남동 683,경기도 시흥시 목감둘레로 150,7530000,경기도교육청,7781000,경기도시흥교육지원청,2013-11-29,2025-10-25,37.372223393,126.857183428,2026-03-20
B000008529,남천중학교,중학교,1985-03-01,공립,본교,운영,부산광역시 남구 대연동 455-12,부산광역시 남구 황령대로492번길 71,7150000,부산광역시교육청,7181000,부산광역시남부교육지원청,2013-11-29,2025-10-25,35.1366035891,129.1052341272,2026-03-20
B000012085,정신여자고등학교,고등학교,1887-10-20,사립,본교,운영,서울특별시 송파구 잠실동 50-4,서울특별시 송파구 올림픽로4길 16,7010000,서울특별시교육청,7130000,서울특별시강동송파교육지원청,2013-11-29,2025-10-25,37.5094538398,127.0738473292,2026-03-20
B000008913,문화중학교,중학교,1984-03-08,공립,본교,운영,광주광역시 북구 우산동 118-4,광주광역시 북구 면앙로 111,7380000,광주광역시교육청,7391000,광주광역시동부교육지원청,2013-11-29,2025-10-25,35.1784669375,126.9239161728,2026-03-20
B000011367,부산영상예술고등학교,고등학교,1955-04-25,공립,본교,운영,부산광역시 영도구 신선동3가 71-1,부산광역시 영도구 영상길 100,7150000,부산광역시교육청,7171000,부산광역시서부교육지원청,2013-11-29,2025-10-25,35.0851361333,129.0449174688,2026-03-20
B000002850,대구태전초등학교,초등학교,1994-03-01,공립,본교,운영,대구광역시 북구 태전동 957,대구광역시 북구 칠곡중앙대로75길 16,7240000,대구광역시교육청,7261000,대구광역시서부교육지원청,2013-11-29,2025-10-25,35.9302459544,128.5460016,2026-03-20
B000012960,대흥고등학교,고등학교,1966-02-22,사립,본교,운영,충청남도 예산군 대흥면 상중리 231,충청남도 예산군 대흥면 예당로 845,8140000,충청남도교육청,8271000,충청남도예산교육지원청,2013-11-29,2025-10-25,36.6054865611,126.7916055894,2026-03-20
B000009073,성안중학교,중학교,2001-03-05,공립,본교,운영,울산광역시 중구 성안동 519-8,울산광역시 중구 성안2길 30,7480000,울산광역시교육청,7491000,울산광역시강북교육지원청,2013-11-29,2025-10-25,35.57278036,129.3178978153,2026-03-20
B000002433,보수초등학교,초등학교,1953-09-01,공립,본교,운영,부산광역시 중구 보수동1가 50-1,부산광역시 중구 흑교로 74,7150000,부산광역시교육청,7171000,부산광역시서부교육지원청,2013-11-29,2025-10-25,35.106072154,129.024219,2026-03-20
B000009849,계촌중학교,중학교,1969-03-12,공립,본교,운영,강원특별자치도 평창군 방림면 계촌리 1372,강원특별자치도 평창군 방림면 계촌길 139,7801000,강원특별자치도교육청,7912000,강원특별자치도평창교육지원청,2013-11-29,2025-10-25,37.4527871912,128.3088134877,2026-03-20
B000004990,상평초등학교,초등학교,1934-10-10,공립,본교,운영,강원특별자치도 양양군 서면 상평리 18,강원특별자치도 양양군 서면 물윗구미길 25,7801000,강원특별자치도교육청,7863000,강원특별자치도속초양양교육지원청,2013-11-29,2025-10-25,38.0734151504,128.5859388587,2026-03-20
B000002306,서울강남초등학교,초등학교,1945-11-02,공립,본교,운영,서울특별시 동작구 상도1동 501-1,서울특별시 동작구 강남초등길 15,7010000,서울특별시교육청,7132000,서울특별시동작관악교육지원청,2013-11-29,2025-10-25,37.50619275,126.9533591418,2026-03-20
B000007684,계동초등학교,초등학교,2002-09-02,공립,본교,운영,경상남도 김해시 대청동 333-1,경상남도 김해시 계동로 96,9010000,경상남도교육청,9091000,경상남도김해교육지원청,2013-11-29,2025-10-25,35.1847880997,128.7956853869,2026-03-20
B000009017,신탄진중학교,중학교,1965-03-05,사립,본교,운영,대전광역시 대덕구 석봉동 311-1,대전광역시 대덕구 석봉로 15,7430000,대전광역시교육청,7441000,대전광역시동부교육지원청,2013-11-29,2025-10-25,36.4473121404,127.4234778785,2026-03-20
B000012182,대구동부고등학교,고등학교,1988-03-01,사립,본교,운영,대구광역시 동구 각산동 199,대구광역시 동구 반야월북로 199,7240000,대구광역시교육청,7251000,대구광역시동부교육지원청,2013-11-29,2025-10-25,35.8742902326,128.7190722232,2026-03-20
B000011767,밀성제일고등학교,고등학교,1974-01-05,사립,본교,운영,경상남도 밀양시 내이동 590-1,경상남도 밀양시 밀양대로 2078,9010000,경상남도교육청,9101000,경상남도밀양교육지원청,2013-11-29,2025-10-25,35.5021831771,128.7501449736,2026-03-20
B000007699,안명초등학교,초등학교,1948-03-25,공립,본교,운영,경상남도 김해시 한림면 안하리 346-1,경상남도 김해시 한림면 안하로 28,9010000,경상남도교육청,9091000,경상남도김해교육지원청,2013-11-29,2025-10-25,35.3044161361,128.8280099761,2026-03-20
B000003484,대전배울초등학교,초등학교,2006-03-01,공립,본교,운영,대전광역시 유성구 관평동 663,대전광역시 유성구 배울2로 8,7430000,대전광역시교육청,7451000,대전광역시서부교육지원청,2013-11-29,2025-10-25,36.4219076986,127.3841459188,2026-03-20
B000005004,상평초등학교공수전분교장,초등학교,1946-05-25,공립,분교,운영,강원특별자치도 양양군 서면 공수전리 31-4,강원특별자치도 양양군 서면 구룡령로 2855,7801000,강원특별자치도교육청,7863000,강원특별자치도속초양양교육지원청,2013-11-29,2025-10-25,38.0418678958,128.5572842195,2026-03-20
B000012612,광명고등학교,고등학교,1975-03-03,공립,본교,운영,경기도 광명시 철산동 234,경기도 광명시 오리로876번길 17,7530000,경기도교육청,7591000,경기도광명교육지원청,2013-11-29,2025-10-25,37.4785711699,126.8659895718,2026-03-20
B000003181,송해초등학교,초등학교,1933-10-06,공립,본교,운영,인천광역시 강화군 송해면 솔정리 640,인천광역시 강화군 송해면 전망대로 93-12,7310000,인천광역시교육청,7351000,인천광역시강화교육지원청,2013-11-29,2025-10-25,37.7694551,126.4610541,2026-03-20
B000004274,광명동초등학교,초등학교,1983-05-18,공립,본교,운영,경기도 광명시 철산동 78-4,경기도 광명시 연서일로 25,7530000,경기도교육청,7591000,경기도광명교육지원청,2013-11-29,2025-10-25,37.483951815,126.8633963058,2026-03-20
B000002460,청학초등학교,초등학교,1954-06-20,공립,본교,운영,부산광역시 영도구 청학동 412-3,부산광역시 영도구 청학로 49,7150000,부산광역시교육청,7171000,부산광역시서부교육지원청,2013-11-29,2025-10-25,35.0932017629,129.059503922,2026-03-20
B000012386,중일고등학교,고등학교,1988-03-15,사립,본교,운영,대전광역시 유성구 관평동 671,대전광역시 유성구 배울2로 68,7430000,대전광역시교육청,7451000,대전광역시서부교육지원청,2013-11-29,2025-10-25,36.4205249148,127.3886964844,2026-03-20
B000008650,영신중학교,중학교,1946-10-17,사립,본교,운영,대구광역시 동구 봉무동 524,대구광역시 동구 팔공로50길 32,7240000,대구광역시교육청,7251000,대구광역시동부교육지원청,2013-11-29,2025-10-25,35.9200042205,128.6464240151,2026-03-20
B000011387,부일전자디자인고등학교,고등학교,1993-03-02,사립,본교,운영,부산광역시 사하구 감천동 634-61,부산광역시 사하구 감천로73번길 36,7150000,부산광역시교육청,7171000,부산광역시서부교육지원청,2013-11-29,2025-10-25,35.0907360857,129.0025604447,2026-03-20
B000011335,서울영상고등학교,고등학교,1952-03-01,사립,본교,운영,서울특별시 양천구 신정동 984,서울특별시 양천구 목동로11길 46,7010000,서울특별시교육청,7081300,서울특별시강서양천교육지원청,2013-11-29,2025-10-25,37.52330444,126.8602935246,2026-03-20
B000003459,대전교촌초등학교,초등학교,2007-03-01,공립,본교,운영,대전광역시 유성구 교촌동 618,대전광역시 유성구 진잠로149번길 42,7430000,대전광역시교육청,7451000,대전광역시서부교육지원청,2013-11-29,2025-10-25,36.3060218868,127.3167705391,2026-03-20
B000011079,김해중학교,중학교,1951-09-01,공립,본교,운영,경상남도 김해시 부원동 39,경상남도 김해시 호계로 456,9010000,경상남도교육청,9091000,경상남도김해교육지원청,2013-11-29,2025-10-25,35.2311053112,128.886135625,2026-03-20
B000008672,신명여자중학교,중학교,1907-10-15,사립,본교,운영,대구광역시 수성구 수성동1가 96-16,대구광역시 수성구 신천동로 364,7240000,대구광역시교육청,7251000,대구광역시동부교육지원청,2013-11-29,2025-10-25,35.857312471,128.6091788104,2026-03-20
B000002738,대구명덕초등학교,초등학교,1940-04-05,공립,본교,운영,대구광역시 중구 남산동 2113,대구광역시 중구 남산로2길 125,7240000,대구광역시교육청,7251000,대구광역시동부교육지원청,2013-11-29,2025-10-25,35.8575407314,128.5890267232,2026-03-20
B000012788,황지고등학교,고등학교,1966-03-01,공립,본교,운영,강원특별자치도 태백시 황지동 232,강원특별자치도 태백시 번영로 179,7801000,강원특별자치도교육청,7852000,강원특별자치도태백교육지원청,2013-11-29,2025-10-25,37.161120374,128.9855687726,2026-03-20
B000012123,사직여자고등학교,고등학교,1986-04-29,사립,본교,운영,부산광역시 동래구 사직동 981-1,부산광역시 동래구 쇠미로27번길 21,7150000,부산광역시교육청,7191000,부산광역시동래교육지원청,2013-11-29,2025-10-25,35.1968431,129.0514472,2026-03-20
B000005287,수곡초등학교,초등학교,1995-03-02,공립,본교,운영,충청북도 청주시 서원구 수곡동 779,충청북도 청주시 서원구 수곡로 73,8000000,충청북도교육청,8011000,충청북도청주교육지원청,2013-11-29,2025-10-25,36.6183643661,127.4711256375,2026-03-20
B000011813,부산센텀여자고등학교,고등학교,2004-03-01,사립,본교,운영,부산광역시 해운대구 우동 1025-127,부산광역시 해운대구 해운대로469번길 50-1,7150000,부산광역시교육청,7211000,부산광역시해운대교육지원청,2013-11-29,2025-10-25,35.16591884,129.1443578,2026-03-20
B000008641,불로중학교,중학교,1991-03-01,공립,본교,운영,대구광역시 동구 불로동 1010,대구광역시 동구 방천로5길 8,7240000,대구광역시교육청,7251000,대구광역시동부교육지원청,2013-11-29,2025-10-25,35.8983006108,128.6344118225,2026-03-20
B000008258,오륜중학교,중학교,1989-03-01,공립,본교,운영,서울특별시 송파구 방이동 89-7,서울특별시 송파구 양재대로 1242,7010000,서울특별시교육청,7130000,서울특별시강동송파교육지원청,2013-11-29,2025-10-25,37.5163239461,127.1389238325,2026-03-20
B000002791,대구범일초등학교,초등학교,1992-11-01,공립,본교,운영,대구광역시 수성구 범물동 1364,대구광역시 수성구 범안로4길 22,7240000,대구광역시교육청,7251000,대구광역시동부교육지원청,2013-11-29,2025-10-25,35.8163164583,128.6388283948,2026-03-20
B000002789,대구복명초등학교,초등학교,1926-04-10,공립,본교,운영,대구광역시 수성구 범물동 1293,대구광역시 수성구 범안로20길 8,7240000,대구광역시교육청,7251000,대구광역시동부교육지원청,2013-11-29,2025-10-25,35.8176268021,128.6472131311,2026-03-20
B000005919,안중초등학교,초등학교,1948-02-24,공립,본교,운영,충청남도 태안군 안면읍 중장리 653,충청남도 태안군 안면읍 율포길 31,8140000,충청남도교육청,8281000,충청남도태안교육지원청,2013-11-29,2025-10-25,36.4740116873,126.3722966979,2026-03-20
B000003415,대전중원초등학교,초등학교,1991-03-01,공립,본교,운영,대전광역시 대덕구 중리동 371-5,대전광역시 대덕구 중리로64번길 45,7430000,대전광역시교육청,7441000,대전광역시동부교육지원청,2013-11-29,2025-10-25,36.3658142022,127.4280276845,2026-03-20
B000025444,용아초등학교,초등학교,2020-09-01,공립,본교,운영,충청북도 청주시 상당구 용암동 3149,충청북도 청주시 상당구 중고개로142번길 32-15,8000000,충청북도교육청,8011000,충청북도청주교육지원청,2013-11-29,2025-10-25,36.61822602,127.522454021,2026-03-20
B000011838,광주자동화설비마이스터고등학교,고등학교,1979-03-08,공립,본교,운영,광주광역시 광산구 우산동 1084,광주광역시 광산구 사암로92번길 136-26,7380000,광주광역시교육청,7401000,광주광역시서부교육지원청,2013-11-29,2025-10-25,35.1500209356,126.8140920884,2026-03-20
B000011362,부산디지털고등학교,고등학교,1953-09-18,사립,본교,운영,부산광역시 중구 영주동 446-2,부산광역시 중구 망양로 356,7150000,부산광역시교육청,7171000,부산광역시서부교육지원청,2013-11-29,2025-10-25,35.1088542936,129.0324467181,2026-03-20
B000011565,김화공업고등학교,고등학교,1968-04-25,공립,본교,운영,강원특별자치도 철원군 서면 와수리 589-5,강원특별자치도 철원군 서면 와수1로 72,7801000,강원특별자치도교육청,7932000,강원특별자치도철원교육지원청,2013-11-29,2025-10-25,38.2434075645,127.4349464,2026-03-20
B000009871,석천중학교,중학교,1970-03-10,공립,본교,운영,강원특별자치도 양구군 양구읍 정림리 230-1,강원특별자치도 양구군 양구읍 박수근로 327,7801000,강원특별자치도교육청,7952000,강원특별자치도양구교육지원청,2013-11-29,2025-10-25,38.1009113953,127.9808197101,2026-03-20
B000011088,경운중학교,중학교,2001-03-01,공립,본교,운영,경상남도 김해시 내동 1115-3,경상남도 김해시 우암로 62,9010000,경상남도교육청,9091000,경상남도김해교육지원청,2013-11-29,2025-10-25,35.2361259375,128.8618342446,2026-03-20
B000012401,무거고등학교,고등학교,2006-03-04,공립,본교,운영,울산광역시 남구 무거동 1000,울산광역시 남구 대학로1번길 17-28,7480000,울산광역시교육청,7501000,울산광역시강남교육지원청,2013-11-29,2025-10-25,35.5362789262,129.2507422513,2026-03-20
B000002594,거제초등학교,초등학교,1946-09-01,공립,본교,운영,부산광역시 연제구 거제동 676-152,부산광역시 연제구 해맞이로 39,7150000,부산광역시교육청,7191000,부산광역시동래교육지원청,2013-11-29,2025-10-25,35.178073956,129.0675717008,2026-03-20
B000008733,성서중학교,중학교,1970-03-30,공립,본교,운영,대구광역시 달서구 용산동 948,대구광역시 달서구 용산서로 63,7240000,대구광역시교육청,7271000,대구광역시남부교육지원청,2013-11-29,2025-10-25,35.8558080954,128.5266048454,2026-03-20
B000001873,서울상봉초등학교,초등학교,1983-10-25,공립,본교,운영,서울특별시 중랑구 상봉동 312-1,서울특별시 중랑구 동일로126가길 11,7010000,서울특별시교육청,7021000,서울특별시동부교육지원청,2013-11-29,2025-10-25,37.59797895,127.0831714,2026-03-20
B000002069,서울원광초등학교,초등학교,1992-04-30,공립,본교,운영,서울특별시 노원구 중계동 359,서울특별시 노원구 덕릉로76길 18,7010000,서울특별시교육청,7051000,서울특별시북부교육지원청,2013-11-29,2025-10-25,37.6543109225,127.0749142468,2026-03-20
B000002068,서울월계초등학교,초등학교,1993-05-06,공립,본교,운영,서울특별시 노원구 월계동 561,서울특별시 노원구 월계로45가길 10,7010000,서울특별시교육청,7051000,서울특별시북부교육지원청,2013-11-29,2025-10-25,37.62762424,127.0501876324,2026-03-20
B000013477,우신고등학교,고등학교,1974-03-05,사립,본교,운영,서울특별시 구로구 궁동 230,서울특별시 구로구 부일로 917,7010000,서울특별시교육청,7041000,서울특별시남부교육지원청,2013-11-29,2025-10-25,37.4949023087,126.8263535998,2026-03-20
B000012812,주천고등학교,고등학교,1946-04-01,공립,본교,운영,강원특별자치도 영월군 주천면 주천리 1430,강원특별자치도 영월군 주천면 주천로89번길 41,7801000,강원특별자치도교육청,7902000,강원특별자치도영월교육지원청,2013-11-29,2025-10-25,37.2735517943,128.2650793744,2026-03-20
B000003451,대전신계초등학교,초등학교,2005-09-01,공립,본교,운영,대전광역시 서구 복수동 452,대전광역시 서구 복수동로 26,7430000,대전광역시교육청,7451000,대전광역시서부교육지원청,2013-11-29,2025-10-25,36.30195202,127.3780278,2026-03-20
B000022940,강경상업고등학교,고등학교,1920-05-25,공립,본교,운영,충청남도 논산시 강경읍 남교리 1,충청남도 논산시 강경읍 계백로 220,8140000,충청남도교육청,8222000,충청남도논산계룡교육지원청,2013-11-29,2025-10-25,36.1614244493,127.0232979528,2026-03-20
B000005014,근덕초등학교,초등학교,1922-05-17,공립,본교,운영,강원특별자치도 삼척시 근덕면 교가리 676-1,강원특별자치도 삼척시 근덕면 삼척로 3653,7801000,강원특별자치도교육청,7872000,강원특별자치도삼척교육지원청,2013-11-29,2025-10-25,37.3809242798,129.2244956412,2026-03-20
B000013367,거제고등학교,고등학교,1948-10-16,사립,본교,운영,경상남도 거제시 아주동 295-8,경상남도 거제시 아주로3길 61,9010000,경상남도교육청,9111000,경상남도거제교육지원청,2013-11-29,2025-10-25,34.8610875932,128.6884261014,2026-03-20
B000011913,거제공업고등학교,고등학교,1969-03-02,공립,본교,운영,경상남도 거제시 고현동 920-2,경상남도 거제시 계룡로11길 63,9010000,경상남도교육청,9111000,경상남도거제교육지원청,2013-11-29,2025-10-25,34.8821051148,128.6141940325,2026-03-20
B000011393,부산소프트웨어마이스터고등학교,고등학교,1970-03-26,공립,본교,운영,부산광역시 강서구 봉림동 15,부산광역시 강서구 가락대로 1393,7150000,부산광역시교육청,7201000,부산광역시북부교육지원청,2013-11-29,2025-10-25,35.18926099,128.9039687,2026-03-20
B000004276,광명광성초등학교,초등학교,1987-11-16,공립,본교,운영,경기도 광명시 철산동 243,경기도 광명시 철산로 59,7530000,경기도교육청,7591000,경기도광명교육지원청,2013-11-29,2025-10-25,37.478850283,126.8730710055,2026-03-20
B000008908,신광중학교,중학교,1981-03-06,공립,본교,운영,광주광역시 북구 두암동 576-5,광주광역시 북구 면앙로165번길 80,7380000,광주광역시교육청,7391000,광주광역시동부교육지원청,2013-11-29,2025-10-25,35.1795333405,126.9321201797,2026-03-20
B000012835,양구여자고등학교,고등학교,1974-01-05,공립,본교,운영,강원특별자치도 양구군 양구읍 정림리 230-1,강원특별자치도 양구군 양구읍 박수근로 327,7801000,강원특별자치도교육청,7952000,강원특별자치도양구교육지원청,2013-11-29,2025-10-25,38.1009113953,127.9808197101,2026-03-20
B000003495,남외초등학교,초등학교,2006-09-01,공립,본교,운영,울산광역시 중구 남외동 502-2,울산광역시 중구 남외3길 40,7480000,울산광역시교육청,7491000,울산광역시강북교육지원청,2013-11-29,2025-10-25,35.56569625,129.3490810328,2026-03-20
B000011942,동국대학교사범대학부속고등학교,고등학교,1947-06-24,사립,본교,운영,서울특별시 동대문구 장안동 328,서울특별시 동대문구 장안벚꽃로 201,7010000,서울특별시교육청,7021000,서울특별시동부교육지원청,2013-11-29,2025-10-25,37.5780471818,127.075133019,2026-03-20
B000011718,한국생명과학고등학교,고등학교,1933-04-20,공립,본교,운영,경상북도 안동시 옥동 1202,경상북도 안동시 하이마로 385,8750000,경상북도교육청,8791000,경상북도안동교육지원청,2013-11-29,2025-10-25,36.5504490217,128.6877645958,2026-03-20
B000013202,성희여자고등학교,고등학교,1985-03-01,사립,본교,운영,경상북도 안동시 정하동 산102-1,경상북도 안동시 강남로 246,8750000,경상북도교육청,8791000,경상북도안동교육지원청,2013-11-29,2025-10-25,36.5515310931,128.7291441776,2026-03-20
B000011547,강원생명과학고등학교,고등학교,1910-04-29,공립,본교,운영,강원특별자치도 춘천시 사농동 122,강원특별자치도 춘천시 영서로 2872,7801000,강원특별자치도교육청,7812000,강원특별자치도춘천교육지원청,2013-11-29,2025-10-25,37.9100160317,127.7232944788,2026-03-20
B000002551,낙민초등학교,초등학교,1981-03-01,공립,본교,운영,부산광역시 동래구 낙민동 303,부산광역시 동래구 충렬대로272번길 34,7150000,부산광역시교육청,7191000,부산광역시동래교육지원청,2013-11-29,2025-10-25,35.1994257819,129.0883430093,2026-03-20
B000013456,대광고등학교,고등학교,1949-10-25,사립,본교,운영,서울특별시 동대문구 신설동 53-3,서울특별시 동대문구 안암로 6,7010000,서울특별시교육청,7021000,서울특별시동부교육지원청,2013-11-29,2025-10-25,37.5779546698,127.0253234798,2026-03-20
B000006517,상사초등학교,초등학교,1932-04-23,공립,본교,운영,전라남도 순천시 상사면 응령리 287,전라남도 순천시 상사면 상사초등길 55,8490000,전라남도교육청,8521000,전라남도순천교육지원청,2013-11-29,2025-10-25,34.9437890503,127.445376259,2026-03-20
B000012723,문산제일고등학교,고등학교,1942-04-26,공립,본교,운영,경기도 파주시 야동동 361,경기도 파주시 평화로 190,7530000,경기도교육청,7681000,경기도파주교육지원청,2013-11-29,2025-10-25,37.77260399,126.7628873,2026-03-20
B000011404,대구과학기술고등학교,고등학교,1997-03-07,공립,본교,운영,대구광역시 서구 내당동 456-1,대구광역시 서구 당산로 228,7240000,대구광역시교육청,7261000,대구광역시서부교육지원청,2013-11-29,2025-10-25,35.8574928211,128.5482964219,2026-03-20
B000008399,인헌중학교,중학교,1971-01-16,공립,본교,운영,서울특별시 관악구 봉천동 1647,서울특별시 관악구 인헌9길 35,7010000,서울특별시교육청,7132000,서울특별시동작관악교육지원청,2013-11-29,2025-10-25,37.4726962123,126.9688402242,2026-03-20
B000013288,마산여자고등학교,고등학교,1915-03-21,공립,본교,운영,경상남도 창원시 마산합포구 완월동 300,경상남도 창원시 마산합포구 고운로 157,9010000,경상남도교육청,9022000,경상남도창원교육지원청,2013-11-29,2025-10-25,35.195938343,128.5614097085,2026-03-20
B000004097,소래초등학교,초등학교,1920-09-01,공립,본교,운영,경기도 시흥시 신천동 705-14,경기도 시흥시 호현로27번길 1,7530000,경기도교육청,7781000,경기도시흥교육지원청,2013-11-29,2025-10-25,37.4426153107,126.7846566022,2026-03-20
B000005217,간성초등학교,초등학교,1910-06-13,공립,본교,운영,강원특별자치도 고성군 간성읍 신안리 192,강원특별자치도 고성군 간성읍 간성로39번길 20,7801000,강원특별자치도교육청,7972000,강원특별자치도고성교육지원청,2013-11-29,2025-10-25,38.3773055392,128.4687327342,2026-03-20
B000004915,모산초등학교,초등학교,1941-09-28,공립,본교,운영,강원특별자치도 강릉시 장현동 43-2,강원특별자치도 강릉시 모산로224번길 3,7801000,강원특별자치도교육청,7832000,강원특별자치도강릉교육지원청,2013-11-29,2025-10-25,37.7318400329,128.9017805147,2026-03-20
B000007944,가조초등학교,초등학교,1922-04-01,공립,본교,운영,경상남도 거창군 가조면 마상리 336-4,경상남도 거창군 가조면 가조가야로 1087,9010000,경상남도교육청,9211000,경상남도거창교육지원청,2013-11-29,2025-10-25,35.7114988262,128.0136443,2026-03-20
B000009475,하안중학교,중학교,1993-03-01,공립,본교,운영,경기도 광명시 하안동 25,경기도 광명시 안현로 80-1,7530000,경기도교육청,7591000,경기도광명교육지원청,2013-11-29,2025-10-25,37.4673857481,126.8807720519,2026-03-20
B000009586,현산중학교,중학교,2004-03-01,공립,본교,운영,경기도 고양시 일산서구 일산동 1915,경기도 고양시 일산서구 일청로 85,7530000,경기도교육청,7621000,경기도고양교육지원청,2013-11-29,2025-10-25,37.69124586,126.7740030207,2026-03-20
B000012069,은광여자고등학교,고등학교,1946-10-15,사립,본교,운영,서울특별시 강남구 도곡동 938-10,서울특별시 강남구 남부순환로359길 36,7010000,서울특별시교육청,7091300,서울특별시강남서초교육지원청,2013-11-29,2025-10-25,37.4883785724,127.0352323611,2026-03-20
B000002940,대구하빈초등학교,초등학교,1924-04-15,공립,본교,운영,대구광역시 달성군 하빈면 현내리 855-3,대구광역시 달성군 하빈면 하빈로 391-1,7240000,대구광역시교육청,7281000,대구광역시달성교육지원청,2013-11-29,2025-10-25,35.90163733,128.4421116934,2026-03-20
B000002765,대구효목초등학교,초등학교,1969-06-10,공립,본교,운영,대구광역시 동구 효목동 633,대구광역시 동구 화랑로27길 25,7240000,대구광역시교육청,7251000,대구광역시동부교육지원청,2013-11-29,2025-10-25,35.8760037966,128.6415759171,2026-03-20
B000004254,오산고현초등학교,초등학교,2007-09-01,공립,본교,운영,경기도 오산시 고현동 92,경기도 오산시 남부대로 459,7530000,경기도교육청,7679000,경기도화성오산교육지원청,2013-11-29,2025-10-25,37.1334449,127.0851451446,2026-03-20
B000012260,숭덕여자고등학교,고등학교,1986-03-01,사립,본교,운영,인천광역시 남동구 만수동 5-213,인천광역시 남동구 만수로73번길 20-23,7310000,인천광역시교육청,7341000,인천광역시동부교육지원청,2013-11-29,2025-10-25,37.4642821063,126.7339171397,2026-03-20
B000011443,산마을고등학교,고등학교,2000-03-15,사립,본교,운영,인천광역시 강화군 양도면 삼흥리 460,인천광역시 강화군 양도면 강화남로1002번길 73-29,7310000,인천광역시교육청,7351000,인천광역시강화교육지원청,2013-11-29,2025-10-25,37.6863625703,126.4255653111,2026-03-20
B000005363,남이초등학교,초등학교,1923-10-22,공립,본교,운영,충청북도 청주시 서원구 남이면 대련리 255,충청북도 청주시 서원구 남이면 대련길 61,8000000,충청북도교육청,8011000,충청북도청주교육지원청,2013-11-29,2025-10-25,36.5770968,127.4542168,2026-03-20
B000023774,심인중학교,중학교,1955-05-15,사립,본교,운영,대구광역시 달성군 다사읍 죽곡리 819,대구광역시 달성군 다사읍 대실역남로1길 21,7240000,대구광역시교육청,7281000,대구광역시달성교육지원청,2013-11-29,2025-10-25,35.85310337,128.4667002809,2026-03-20
B000024035,대구대실초등학교,초등학교,2016-03-01,공립,본교,운영,대구광역시 달성군 다사읍 죽곡리 820,대구광역시 달성군 다사읍 대실역남로1길 31,7240000,대구광역시교육청,7281000,대구광역시달성교육지원청,2013-11-29,2025-10-25,35.8530885401,128.4678978715,2026-03-20
B000008732,용산중학교,중학교,1985-03-01,공립,본교,운영,대구광역시 달서구 용산동 888,대구광역시 달서구 와룡로45길 72,7240000,대구광역시교육청,7271000,대구광역시남부교육지원청,2013-11-29,2025-10-25,35.8541645475,128.5323609371,2026-03-20
B000003306,송정중앙초등학교,초등학교,1967-10-14,공립,본교,운영,광주광역시 광산구 소촌동 321-1,광주광역시 광산구 어등대로653번길 90,7380000,광주광역시교육청,7401000,광주광역시서부교육지원청,2013-11-29,2025-10-25,35.1478478065,126.7950110276,2026-03-20
B000011530,두원공업고등학교,고등학교,1991-03-01,사립,본교,운영,경기도 안성시 미양면 신기리 47-8,경기도 안성시 미양면 미양로 727,7530000,경기도교육청,7761000,경기도안성교육지원청,2013-11-29,2025-10-25,36.99677795,127.2417999063,2026-03-20
B000005164,묘장초등학교,초등학교,1968-10-04,공립,본교,운영,강원특별자치도 철원군 철원읍 대마리 192-5,강원특별자치도 철원군 철원읍 묘장로 344,7801000,강원특별자치도교육청,7932000,강원특별자치도철원교육지원청,2013-11-29,2025-10-25,38.2640862552,127.1648028282,2026-03-20
B000013203,풍산고등학교,고등학교,1968-03-05,사립,본교,운영,경상북도 안동시 풍산읍 안교리 320,경상북도 안동시 풍산읍 풍산중앙길 39,8750000,경상북도교육청,8791000,경상북도안동교육지원청,2013-11-29,2025-10-25,36.5841466495,128.5665357901,2026-03-20
B000001845,서울장평초등학교,초등학교,1980-04-04,공립,본교,운영,서울특별시 동대문구 장안동 323,서울특별시 동대문구 답십리로69길 27,7010000,서울특별시교육청,7021000,서울특별시동부교육지원청,2013-11-29,2025-10-25,37.5739950231,127.0738909773,2026-03-20
B000002826,대구관남초등학교,초등학교,2001-03-01,공립,본교,운영,대구광역시 북구 관음동 1386-2,대구광역시 북구 칠곡중앙대로91길 10,7240000,대구광역시교육청,7261000,대구광역시서부교육지원청,2013-11-29,2025-10-25,35.9368363868,128.5477779,2026-03-20
B000025376,위례솔중학교,중학교,2022-03-01,공립,본교,운영,서울특별시 송파구 거여동 649,서울특별시 송파구 위례북로2길 10,7010000,서울특별시교육청,7130000,서울특별시강동송파교육지원청,2013-11-29,2025-10-25,37.4870130683,127.150586712,2026-03-20
B000012814,상동고등학교,고등학교,1955-12-31,공립,본교,운영,강원특별자치도 영월군 상동읍 천평리 414,강원특별자치도 영월군 상동읍 태백산로 3147,7801000,강원특별자치도교육청,7902000,강원특별자치도영월교육지원청,2013-11-29,2025-10-25,37.1252584067,128.8224543819,2026-03-20
B000023752,운남중학교,중학교,2021-03-01,공립,본교,운영,경상북도 김천시 율곡동 370,경상북도 김천시 우래1길 7,8750000,경상북도교육청,8781000,경상북도김천교육지원청,2013-11-29,2025-10-25,36.1220003155,128.1791173,2026-03-20
B000012768,대성고등학교,고등학교,1954-05-07,사립,본교,운영,강원특별자치도 원주시 무실동 산123-1,강원특별자치도 원주시 북원로 2001,7801000,강원특별자치도교육청,7822000,강원특별자치도원주교육지원청,2013-11-29,2025-10-25,37.327309714,127.9208654495,2026-03-20
B000008955,송광중학교,중학교,2004-03-01,공립,본교,운영,광주광역시 광산구 송정동 900,광주광역시 광산구 송정로 74,7380000,광주광역시교육청,7401000,광주광역시서부교육지원청,2013-11-29,2025-10-25,35.1334029391,126.7979491477,2026-03-20
B000011220,수동중학교,중학교,1954-07-03,공립,본교,운영,경상남도 함양군 수동면 화산리 1010,경상남도 함양군 수동면 수동내동길 19,9010000,경상남도교육청,9201000,경상남도함양교육지원청,2013-11-29,2025-10-25,35.5243359477,127.7895833973,2026-03-20
B000002346,서울신성초등학교,초등학교,1982-10-11,공립,본교,운영,서울특별시 관악구 신림동 117-4,서울특별시 관악구 신림로 114,7010000,서울특별시교육청,7132000,서울특별시동작관악교육지원청,2013-11-29,2025-10-25,37.4720033123,126.9367541503,2026-03-20
B000002143,서울마천초등학교,초등학교,1978-02-01,공립,본교,운영,서울특별시 송파구 마천동 183-4,서울특별시 송파구 마천로61다길 24,7010000,서울특별시교육청,7130000,서울특별시강동송파교육지원청,2013-11-29,2025-10-25,37.4955054523,127.1526294501,2026-03-20
B000007670,삼방초등학교,초등학교,1992-03-01,공립,본교,운영,경상남도 김해시 삼방동 675,경상남도 김해시 삼안로235번길 20,9010000,경상남도교육청,9091000,경상남도김해교육지원청,2013-11-29,2025-10-25,35.2489292655,128.9077057967,2026-03-20
B000002817,대구달서초등학교,초등학교,1979-09-05,공립,본교,운영,대구광역시 서구 중리동 65-2,대구광역시 서구 국채보상로34길 35,7240000,대구광역시교육청,7261000,대구광역시서부교육지원청,2013-11-29,2025-10-25,35.8668440867,128.5505467,2026-03-20
B000012141,센텀고등학교,고등학교,2008-03-01,공립,본교,운영,부산광역시 해운대구 재송동 1222,부산광역시 해운대구 해운대로 246,7150000,부산광역시교육청,7211000,부산광역시해운대교육지원청,2013-11-29,2025-10-25,35.1771034302,129.1269806257,2026-03-20
B000004913,동명초등학교,초등학교,1938-07-04,공립,본교,운영,강원특별자치도 강릉시 송정동 168-1,강원특별자치도 강릉시 경강로 2473,7801000,강원특별자치도교육청,7832000,강원특별자치도강릉교육지원청,2013-11-29,2025-10-25,37.7754311601,128.9287445525,2026-03-20
B000009271,호성중학교,중학교,2003-03-01,공립,본교,운영,경기도 안양시 동안구 호계동 781-3,경기도 안양시 동안구 호성로 55,7530000,경기도교육청,7569000,경기도안양과천교육지원청,2013-11-29,2025-10-25,37.366918366,126.9637649303,2026-03-20
B000010864,경산제일중학교,중학교,1970-03-01,사립,본교,운영,경상북도 경산시 자인면 동부리 208,경상북도 경산시 자인면 원효로 851-16,8750000,경상북도교육청,8851000,경상북도경산교육지원청,2013-11-29,2025-10-25,35.81594134,128.8278876,2026-03-20
B000008271,오주중학교,중학교,1984-09-01,공립,본교,운영,서울특별시 송파구 오금동 59,서울특별시 송파구 동남로 281,7010000,서울특별시교육청,7130000,서울특별시강동송파교육지원청,2013-11-29,2025-10-25,37.50150661,127.1362653,2026-03-20
B000011858,과천외국어고등학교,고등학교,1990-03-05,사립,본교,운영,경기도 과천시 중앙동 11,경기도 과천시 희망길 36,7530000,경기도교육청,7569000,경기도안양과천교육지원청,2013-11-29,2025-10-25,37.4326435517,126.9881073132,2026-03-20
B000004281,하안북초등학교,초등학교,1989-09-01,공립,본교,운영,경기도 광명시 하안동 684-1,경기도 광명시 가림로 18,7530000,경기도교육청,7591000,경기도광명교육지원청,2013-11-29,2025-10-25,37.4647085135,126.8691342353,2026-03-20
B000004889,동화초등학교,초등학교,2004-03-01,공립,본교,운영,강원특별자치도 원주시 문막읍 동화리 1534-2,강원특별자치도 원주시 문막읍 왕건로 83,7801000,강원특별자치도교육청,7822000,강원특별자치도원주교육지원청,2013-11-29,2025-10-25,37.327478801,127.8285780516,2026-03-20
B000007665,구봉초등학교,초등학교,1980-05-14,공립,본교,운영,경상남도 김해시 구산동 199,경상남도 김해시 구지로 99-26,9010000,경상남도교육청,9091000,경상남도김해교육지원청,2013-11-29,2025-10-25,35.2408385134,128.873772442,2026-03-20
B000008491,두송중학교,중학교,2006-03-03,공립,본교,운영,부산광역시 사하구 다대동 1580,부산광역시 사하구 다송로 76,7150000,부산광역시교육청,7171000,부산광역시서부교육지원청,2013-11-29,2025-10-25,35.0606593201,128.9829530649,2026-03-20
B000009477,하안북중학교,중학교,1976-03-03,공립,본교,운영,경기도 광명시 하안동 684,경기도 광명시 가림로 22,7530000,경기도교육청,7591000,경기도광명교육지원청,2013-11-29,2025-10-25,37.4650843786,126.8677255921,2026-03-20
B000011659,여수해양과학고등학교,고등학교,1980-03-08,공립,본교,운영,전라남도 여수시 돌산읍 군내리 139,전라남도 여수시 돌산읍 돌산로 1201-18,8490000,전라남도교육청,8511000,전라남도여수교육지원청,2013-11-29,2025-10-25,34.6141368891,127.7270000195,2026-03-20
B000012725,봉일천고등학교,고등학교,2007-03-06,공립,본교,운영,경기도 파주시 조리읍 봉일천리 254-2,경기도 파주시 조리읍 소곡로 54,7530000,경기도교육청,7681000,경기도파주교육지원청,2013-11-29,2025-10-25,37.7469903612,126.8162726086,2026-03-20
B000004746,연곡초등학교,초등학교,1958-04-01,공립,본교,운영,경기도 양주시 백석읍 연곡리 13-3,경기도 양주시 백석읍 월암로170번길 107,7530000,경기도교육청,7602000,경기도동두천양주교육지원청,2013-11-29,2025-10-25,37.8071579133,126.9611638234,2026-03-20
B000026572,솔빛초등학교,초등학교,2019-03-01,공립,본교,운영,세종특별자치시 반곡동 42-22,세종특별자치시 반곡2길 21,9300000,세종특별자치시교육청,9300000,세종특별자치시교육청,2013-11-29,2025-10-25,36.495908417,127.3120142271,2026-03-20
B000008611,센텀중학교,중학교,2006-03-01,공립,본교,운영,부산광역시 해운대구 재송동 1206,부산광역시 해운대구 센텀북대로 32,7150000,부산광역시교육청,7211000,부산광역시해운대교육지원청,2013-11-29,2025-10-25,35.17536656,129.1237585905,2026-03-20
B000007703,진례초등학교,초등학교,1926-03-01,공립,본교,운영,경상남도 김해시 진례면 초전리 530-2,경상남도 김해시 진례면 송현로 74-12,9010000,경상남도교육청,9091000,경상남도김해교육지원청,2013-11-29,2025-10-25,35.24774012,128.7561339772,2026-03-20
B000025211,인천연송고등학교,고등학교,2013-03-01,공립,본교,운영,인천광역시 연수구 송도동 15-4,인천광역시 연수구 컨벤시아대로42번길 72,7310000,인천광역시교육청,7341000,인천광역시동부교육지원청,2013-11-29,2025-10-25,37.4031674673,126.6467361,2026-03-20
B000009473,광명북중학교,중학교,1986-03-01,공립,본교,운영,경기도 광명시 철산동 59,경기도 광명시 시청로 121,7530000,경기도교육청,7591000,경기도광명교육지원청,2013-11-29,2025-10-25,37.4871437437,126.8657711861,2026-03-20
B000004866,반곡초등학교,초등학교,2008-03-01,공립,본교,운영,강원특별자치도 원주시 반곡동 1450-1,강원특별자치도 원주시 동부순환로 247,7801000,강원특별자치도교육청,7822000,강원특별자치도원주교육지원청,2013-11-29,2025-10-25,37.3373417459,127.9730348983,2026-03-20
B000025373,서울위례솔초등학교,초등학교,2022-03-01,공립,본교,운영,서울특별시 송파구 거여동 649,서울특별시 송파구 위례북로2길 12,7010000,서울특별시교육청,7130000,서울특별시강동송파교육지원청,2013-11-29,2025-10-25,37.4870130683,127.150586712,2026-03-20
B000003277,화정남초등학교,초등학교,1992-04-06,공립,본교,운영,광주광역시 서구 화정동 929-1,광주광역시 서구 염화로 37,7380000,광주광역시교육청,7401000,광주광역시서부교육지원청,2013-11-29,2025-10-25,35.1378563249,126.8716252573,2026-03-20
B000005125,속사초등학교,초등학교,1942-07-15,공립,본교,운영,강원특별자치도 평창군 용평면 속사리 352,강원특별자치도 평창군 용평면 운두령로 100,7801000,강원특별자치도교육청,7912000,강원특별자치도평창교육지원청,2013-11-29,2025-10-25,37.6464604145,128.4926046467,2026-03-20
B000002279,서울대진초등학교,초등학교,1993-03-01,공립,본교,운영,서울특별시 강남구 개포동 13,서울특별시 강남구 개포로109길 74,7010000,서울특별시교육청,7091300,서울특별시강남서초교육지원청,2013-11-29,2025-10-25,37.4970121072,127.0780425,2026-03-20
B000009769,관동중학교,중학교,1983-06-17,공립,본교,운영,강원특별자치도 강릉시 교동 1427,강원특별자치도 강릉시 하슬라로20번길 14,7801000,강원특별자치도교육청,7832000,강원특별자치도강릉교육지원청,2013-11-29,2025-10-25,37.7572172409,128.8788334593,2026-03-20
B000009880,기린중학교,중학교,1952-06-15,공립,본교,운영,강원특별자치도 인제군 기린면 현리 765-2,강원특별자치도 인제군 기린면 창암길 20,7801000,강원특별자치도교육청,7962000,강원특별자치도인제교육지원청,2013-11-29,2025-10-25,37.9462060491,128.3116900249,2026-03-20
B000008509,동평여자중학교,중학교,1980-01-24,공립,본교,운영,부산광역시 부산진구 부암동 450-1,부산광역시 부산진구 백양순환로119번길 12-39,7150000,부산광역시교육청,7181000,부산광역시남부교육지원청,2013-11-29,2025-10-25,35.1704046316,129.043530462,2026-03-20
B000006413,여수종고초등학교,초등학교,1967-03-02,공립,본교,운영,전라남도 여수시 덕충동 111,전라남도 여수시 공화북6길 52,8490000,전라남도교육청,8511000,전라남도여수교육지원청,2013-11-29,2025-10-25,34.7498493018,127.7436519298,2026-03-20
B000005041,서석초등학교,초등학교,1926-12-10,공립,본교,운영,강원특별자치도 홍천군 서석면 풍암리 194,강원특별자치도 홍천군 서석면 풍암길 58,7801000,강원특별자치도교육청,7882000,강원특별자치도홍천교육지원청,2013-11-29,2025-10-25,37.7123960154,128.188230295,2026-03-20
B000011397,부산항공고등학교,고등학교,1996-03-01,공립,본교,운영,부산광역시 사상구 덕포동 45-6,부산광역시 사상구 백양대로768번길 115,7150000,부산광역시교육청,7201000,부산광역시북부교육지원청,2013-11-29,2025-10-25,35.1732769084,128.9933191365,2026-03-20
B000011667,호남원예고등학교,고등학교,1947-10-10,공립,본교,운영,전라남도 나주시 금천면 원곡리 253-1,전라남도 나주시 금천면 영산로 5691,8490000,전라남도교육청,8531000,전라남도나주교육지원청,2013-11-29,2025-10-25,35.0382230745,126.7510880427,2026-03-20
B000012738,동두천고등학교,고등학교,1963-03-01,사립,본교,운영,경기도 동두천시 생연동 451,경기도 동두천시 평화로2434번길 8,7530000,경기도교육청,7602000,경기도동두천양주교육지원청,2013-11-29,2025-10-25,37.9047147113,127.0592538677,2026-03-20
B000007408,서벽초등학교,초등학교,1952-03-01,공립,본교,운영,경상북도 봉화군 춘양면 서벽리 349-2,경상북도 봉화군 춘양면 춘양로 1424,8750000,경상북도교육청,8961000,경상북도봉화교육지원청,2013-11-29,2025-10-25,37.0088142516,128.8336222069,2026-03-20
B000008684,학남중학교,중학교,2002-03-01,공립,본교,운영,대구광역시 북구 국우동 1085,대구광역시 북구 학남로 83,7240000,대구광역시교육청,7261000,대구광역시서부교육지원청,2013-11-29,2025-10-25,35.945530269,128.570413,2026-03-20
B000013509,대구서부고등학교,고등학교,1997-03-01,공립,본교,운영,대구광역시 서구 평리동 1070-48,대구광역시 서구 국채보상로53길 32,7240000,대구광역시교육청,7261000,대구광역시서부교육지원청,2013-11-29,2025-10-25,35.8736530944,128.5602007098,2026-03-20
B000013194,안동여자고등학교,고등학교,1942-05-01,공립,본교,운영,경상북도 안동시 법상동 23-1,경상북도 안동시 법상윗3길 32,8750000,경상북도교육청,8791000,경상북도안동교육지원청,2013-11-29,2025-10-25,36.5730397352,128.7256251175,2026-03-20
B000003521,남목초등학교,초등학교,1921-05-09,공립,본교,운영,울산광역시 동구 서부동 370,울산광역시 동구 옥류로 33,7480000,울산광역시교육청,7491000,울산광역시강북교육지원청,2013-11-29,2025-10-25,35.5424857377,129.4247502388,2026-03-20
B000026417,청완초등학교,초등학교,1969-10-29,공립,본교,운영,전북특별자치도 완주군 봉동읍 둔산리 864-14,전북특별자치도 완주군 봉동읍 완주산단9로 80,8321000,전북특별자치도교육청,8392000,전북특별자치도완주교육지원청,2013-11-29,2025-10-25,35.9635993341,127.1204786,2026-03-20
B000002787,대구대청초등학교,초등학교,1988-03-01,공립,본교,운영,대구광역시 수성구 만촌동 873,대구광역시 수성구 교학로12길 42,7240000,대구광역시교육청,7251000,대구광역시동부교육지원청,2013-11-29,2025-10-25,35.8509061084,128.6501674165,2026-03-20
B000007531,호계초등학교,초등학교,2002-09-01,공립,본교,운영,경상남도 창원시 마산회원구 내서읍 호계리 71-1,경상남도 창원시 마산회원구 내서읍 광려천북로 182,9010000,경상남도교육청,9022000,경상남도창원교육지원청,2013-11-29,2025-10-25,35.2656230059,128.5228100505,2026-03-20
B000022834,인천청람초등학교,초등학교,2013-03-01,공립,본교,운영,인천광역시 서구 청라동 149-1,인천광역시 서구 청라커낼로 336,7310000,인천광역시교육청,7361000,인천광역시서부교육지원청,2013-11-29,2025-10-25,37.5386963565,126.6453132879,2026-03-20
B000003367,대전동광초등학교,초등학교,1936-04-13,공립,본교,운영,대전광역시 동구 자양동 94-3,대전광역시 동구 백룡로11번길 20,7430000,대전광역시교육청,7441000,대전광역시동부교육지원청,2013-11-29,2025-10-25,36.3373475953,127.4495504702,2026-03-20
B000009573,중산중학교,중학교,1995-09-01,공립,본교,운영,경기도 고양시 일산동구 중산동 1575-2,경기도 고양시 일산동구 탄중로 361,7530000,경기도교육청,7621000,경기도고양교육지원청,2013-11-29,2025-10-25,37.69140401,126.78350167,2026-03-20
B000008526,감만중학교,중학교,1976-03-05,공립,본교,운영,부산광역시 남구 감만동 2-1,부산광역시 남구 홍곡로 313-14,7150000,부산광역시교육청,7181000,부산광역시남부교육지원청,2013-11-29,2025-10-25,35.12173218,129.0892609,2026-03-20
B000003247,일동초등학교,초등학교,1999-09-01,공립,본교,운영,광주광역시 북구 일곡동 890-1,광주광역시 북구 일곡택지로 45,7380000,광주광역시교육청,7391000,광주광역시동부교육지원청,2013-11-29,2025-10-25,35.2060483825,126.8933313,2026-03-20
B000007898,진정초등학교,초등학교,1924-10-20,공립,본교,운영,경상남도 하동군 금남면 진정리 555-1,경상남도 하동군 금남면 진정1길 10,9010000,경상남도교육청,9181000,경상남도하동교육지원청,2013-11-29,2025-10-25,34.9853369586,127.8246192893,2026-03-20
B000008386,장승중학교,중학교,1985-04-24,공립,본교,운영,서울특별시 동작구 상도동 175-1,서울특별시 동작구 장승배기로10가길 25,7010000,서울특별시교육청,7132000,서울특별시동작관악교육지원청,2013-11-29,2025-10-25,37.5031485834,126.9408340044,2026-03-20
B000005131,정선초등학교,초등학교,1912-06-01,공립,본교,운영,강원특별자치도 정선군 정선읍 봉양리 299-2,강원특별자치도 정선군 정선읍 비봉로 15,7801000,강원특별자치도교육청,7922000,강원특별자치도정선교육지원청,2013-11-29,2025-10-25,37.3812180738,128.6596620148,2026-03-20
B000008302,신목중학교,중학교,1986-03-01,공립,본교,운영,서울특별시 양천구 목동 902-1,서울특별시 양천구 목동중앙로 88,7010000,서울특별시교육청,7081300,서울특별시강서양천교육지원청,2013-11-29,2025-10-25,37.5370239899,126.8730724886,2026-03-20
B000008556,부곡중학교,중학교,1969-11-10,공립,본교,운영,부산광역시 금정구 부곡동 산56-3,부산광역시 금정구 동부곡로15번길 102-20,7150000,부산광역시교육청,7191000,부산광역시동래교육지원청,2013-11-29,2025-10-25,35.2314365606,129.0961976767,2026-03-20
B000008222,중원중학교,중학교,1991-03-04,공립,본교,운영,서울특별시 노원구 중계동 511-3,서울특별시 노원구 공릉로 420,7010000,서울특별시교육청,7051000,서울특별시북부교육지원청,2013-11-29,2025-10-25,37.6442386787,127.0680295128,2026-03-20
B000008400,신관중학교,중학교,1984-03-01,공립,본교,운영,서울특별시 관악구 신림동 87-81,서울특별시 관악구 신림로48길 17-16,7010000,서울특별시교육청,7132000,서울특별시동작관악교육지원청,2013-11-29,2025-10-25,37.4802012454,126.9344522415,2026-03-20
B000003169,인천신현초등학교,초등학교,1982-03-01,공립,본교,운영,인천광역시 서구 신현동 291,인천광역시 서구 율도로77번길 1,7310000,인천광역시교육청,7361000,인천광역시서부교육지원청,2013-11-29,2025-10-25,37.5147396754,126.6701040832,2026-03-20
B000011095,한얼중학교,중학교,1981-03-01,공립,본교,운영,경상남도 김해시 진영읍 여래리 892-1,경상남도 김해시 진영읍 진영로265번길 9-8,9010000,경상남도교육청,9091000,경상남도김해교육지원청,2013-11-29,2025-10-25,35.3044931236,128.742067338,2026-03-20
B000008530,대천중학교,중학교,1983-03-05,공립,본교,운영,부산광역시 남구 대연동 643-1,부산광역시 남구 신선로 491,7150000,부산광역시교육청,7181000,부산광역시남부교육지원청,2013-11-29,2025-10-25,35.12854485,129.1033023,2026-03-20
B000012687,일산대진고등학교,고등학교,1995-03-01,사립,본교,운영,경기도 고양시 일산서구 대화동 2097,경기도 고양시 일산서구 대산로 246,7530000,경기도교육청,7621000,경기도고양교육지원청,2013-11-29,2025-10-25,37.6804713913,126.7515966562,2026-03-20
B000011026,창덕중학교,중학교,1953-04-15,공립,본교,운영,경상남도 창원시 의창구 동읍 용잠리 282,경상남도 창원시 의창구 동읍 의창대로900번길 12,9010000,경상남도교육청,9022000,경상남도창원교육지원청,2013-11-29,2025-10-25,35.27744139,128.68880575,2026-03-20
B000002144,서울오륜초등학교,초등학교,1989-03-02,공립,본교,운영,서울특별시 송파구 방이동 89-16,서울특별시 송파구 양재대로 1196,7010000,서울특별시교육청,7130000,서울특별시강동송파교육지원청,2013-11-29,2025-10-25,37.5124241077,127.1345763,2026-03-20
B000001958,서울개명초등학교,초등학교,1984-05-04,공립,본교,운영,서울특별시 구로구 개봉동 314-165,서울특별시 구로구 개봉로1다길 16-9,7010000,서울특별시교육청,7041000,서울특별시남부교육지원청,2013-11-29,2025-10-25,37.4830390417,126.8509791353,2026-03-20
B000002205,서울신강초등학교,초등학교,1984-06-01,공립,본교,운영,서울특별시 양천구 신월동 448-5,서울특별시 양천구 중앙로55길 72,7010000,서울특별시교육청,7081300,서울특별시강서양천교육지원청,2013-11-29,2025-10-25,37.52584419,126.8422639,2026-03-20
B000008480,해동중학교,중학교,1946-04-08,사립,본교,운영,부산광역시 영도구 동삼동 산57,부산광역시 영도구 절영로490번길 8-22,7150000,부산광역시교육청,7171000,부산광역시서부교육지원청,2013-11-29,2025-10-25,35.0696707169,129.0696380014,2026-03-20
B000001982,서울가산초등학교,초등학교,1984-06-14,공립,본교,운영,서울특별시 금천구 독산동 143-23,서울특별시 금천구 남부순환로 1304-11,7010000,서울특별시교육청,7041000,서울특별시남부교육지원청,2013-11-29,2025-10-25,37.4781651469,126.8963297259,2026-03-20
B000008528,동항중학교,중학교,1980-02-14,공립,본교,운영,부산광역시 남구 감만동 176-82,부산광역시 남구 양지골로 248,7150000,부산광역시교육청,7181000,부산광역시남부교육지원청,2013-11-29,2025-10-25,35.11907295,129.0854314,2026-03-20
B000011242,대병중학교,중학교,1956-02-13,사립,본교,운영,경상남도 합천군 대병면 회양리 904,경상남도 합천군 대병면 신성동길 53-16,9010000,경상남도교육청,9221000,경상남도합천교육지원청,2013-11-29,2025-10-25,35.5184119693,128.0116542761,2026-03-20
B000011732,경북조리과학고등학교,고등학교,1974-03-01,공립,본교,운영,경상북도 문경시 문경읍 교촌리 160,경상북도 문경시 문경읍 향교길 20,8750000,경상북도교육청,8841000,경상북도문경교육지원청,2013-11-29,2025-10-25,36.739016446,128.114508494,2026-03-20
B000011089,내동중학교,중학교,1992-03-01,공립,본교,운영,경상남도 김해시 내동 169,경상남도 김해시 평전로 135,9010000,경상남도교육청,9091000,경상남도김해교육지원청,2013-11-29,2025-10-25,35.2410657139,128.8589326477,2026-03-20
B000007702,대진초등학교,초등학교,1956-06-30,공립,본교,운영,경상남도 김해시 진례면 담안리 926-2,경상남도 김해시 진례면 고모로327번길 19,9010000,경상남도교육청,9091000,경상남도김해교육지원청,2013-11-29,2025-10-25,35.2577727232,128.7640203,2026-03-20
B000002666,동궁초등학교,초등학교,1999-09-01,공립,본교,운영,부산광역시 사상구 엄궁동 680-4,부산광역시 사상구 엄궁로 70-7,7150000,부산광역시교육청,7201000,부산광역시북부교육지원청,2013-11-29,2025-10-25,35.123459696,128.9748133493,2026-03-20
B000024323,북면초등학교,초등학교,1924-11-01,공립,본교,운영,경상남도 창원시 의창구 북면 감계리 231-2,경상남도 창원시 의창구 북면 동전로110번길 36,9010000,경상남도교육청,9022000,경상남도창원교육지원청,2013-11-29,2025-10-25,35.3052919402,128.6000619,2026-03-20
B000008209,태랑중학교,중학교,2002-03-01,공립,본교,운영,서울특별시 노원구 공릉동 117,서울특별시 노원구 화랑로51나길 51,7010000,서울특별시교육청,7051000,서울특별시북부교육지원청,2013-11-29,2025-10-25,37.6269840917,127.091371792,2026-03-20
B000004961,동해중앙초등학교,초등학교,1941-07-01,공립,본교,운영,강원특별자치도 동해시 천곡동 793,강원특별자치도 동해시 천곡로 35,7801000,강원특별자치도교육청,7842000,강원특별자치도동해교육지원청,2013-11-29,2025-10-25,37.52531981,129.1084971802,2026-03-20
B000008718,상인중학교,중학교,1999-03-01,공립,본교,운영,대구광역시 달서구 상인동 1561,대구광역시 달서구 상인로 34,7240000,대구광역시교육청,7271000,대구광역시남부교육지원청,2013-11-29,2025-10-25,35.8113553336,128.550121904,2026-03-20
B000010628,해룡중학교,중학교,1971-03-05,사립,본교,운영,전라남도 영광군 영광읍 도동리 68,전라남도 영광군 영광읍 중앙로 120,8490000,전라남도교육청,8681000,전라남도영광교육지원청,2013-11-29,2025-10-25,35.26843387,126.513448,2026-03-20
B000011087,활천중학교,중학교,2009-03-01,공립,본교,운영,경상남도 김해시 지내동 15,경상남도 김해시 분성로707번길 40,9010000,경상남도교육청,9091000,경상남도김해교육지원청,2013-11-29,2025-10-25,35.2356857878,128.9239732539,2026-03-20
B000006028,군산금광초등학교,초등학교,1953-04-29,공립,본교,운영,전북특별자치도 군산시 금광동 168,전북특별자치도 군산시 대학로 100,8321000,전북특별자치도교육청,8342000,전북특별자치도군산교육지원청,2013-11-29,2025-10-25,35.9821906535,126.7062198,2026-03-20
B000009533,양진중학교,중학교,2008-03-01,공립,본교,운영,경기도 안성시 공도읍 진사리 135-8,경기도 안성시 공도읍 진사1길 37,7530000,경기도교육청,7761000,경기도안성교육지원청,2013-11-29,2025-10-25,36.9858289327,127.1438654045,2026-03-20
B000012216,영남고등학교,고등학교,1951-08-31,사립,본교,운영,대구광역시 달서구 상인동 70,대구광역시 달서구 월곡로 300,7240000,대구광역시교육청,7271000,대구광역시남부교육지원청,2013-11-29,2025-10-25,35.8207699873,128.5363042696,2026-03-20
B000008861,인천해원중학교,중학교,2012-03-01,공립,본교,운영,인천광역시 서구 청라동 103-25,인천광역시 서구 청라한내로 21,7310000,인천광역시교육청,7361000,인천광역시서부교육지원청,2013-11-29,2025-10-25,37.5272344391,126.6280402145,2026-03-20
B000007810,장마초등학교,초등학교,1927-12-05,공립,본교,운영,경상남도 창녕군 장마면 강리 766-1,경상남도 창녕군 장마면 강리길 61,9010000,경상남도교육청,9141000,경상남도창녕교육지원청,2013-11-29,2025-10-25,35.4598407478,128.476506136,2026-03-20
B000011558,한국에너지마이스터고등학교,고등학교,1956-03-01,공립,본교,운영,강원특별자치도 삼척시 근덕면 교가리 540,강원특별자치도 삼척시 근덕면 삼척로 3700,7801000,강원특별자치도교육청,7872000,강원특별자치도삼척교육지원청,2013-11-29,2025-10-25,37.3849286672,129.2243017281,2026-03-20
B000008373,단국대학교사범대학부속중학교,중학교,1941-05-25,사립,본교,운영,서울특별시 강남구 대치동 1013,서울특별시 강남구 도곡로64길 21,7010000,서울특별시교육청,7091300,서울특별시강남서초교육지원청,2013-11-29,2025-10-25,37.49561749,127.0577682,2026-03-20
B000002291,서울대곡초등학교,초등학교,1982-03-01,공립,본교,운영,서울특별시 강남구 대치동 510,서울특별시 강남구 남부순환로 3022,7010000,서울특별시교육청,7091300,서울특별시강남서초교육지원청,2013-11-29,2025-10-25,37.49471064,127.0650265,2026-03-20
B000002227,서울정곡초등학교,초등학교,1993-09-23,공립,본교,운영,서울특별시 강서구 방화동 836,서울특별시 강서구 방화대로50길 22,7010000,서울특별시교육청,7081300,서울특별시강서양천교육지원청,2013-11-29,2025-10-25,37.57695491,126.8189327732,2026-03-20
B000007258,용성초등학교,초등학교,1922-04-24,공립,본교,운영,경상북도 경산시 용성면 당리리 161,경상북도 경산시 용성면 원효로 1405,8750000,경상북도교육청,8851000,경상북도경산교육지원청,2013-11-29,2025-10-25,35.7932723497,128.8746678026,2026-03-20
B000012189,매천고등학교,고등학교,2008-03-03,공립,본교,운영,대구광역시 북구 태전동 1127,대구광역시 북구 매전로 70,7240000,대구광역시교육청,7261000,대구광역시서부교육지원청,2013-11-29,2025-10-25,35.9115943313,128.5472370775,2026-03-20
B000008496,동주여자중학교,중학교,1949-04-26,사립,본교,운영,부산광역시 사하구 괴정동 380-1,부산광역시 사하구 사리로8번길 28,7150000,부산광역시교육청,7171000,부산광역시서부교육지원청,2013-11-29,2025-10-25,35.10077153,129.0013637713,2026-03-20
B000011514,한국조리과학고등학교,고등학교,1998-10-27,사립,본교,운영,경기도 시흥시 과림동 11-1,경기도 시흥시 금오로 640,7530000,경기도교육청,7781000,경기도시흥교육지원청,2013-11-29,2025-10-25,37.4585179847,126.8323612829,2026-03-20
B000012179,청구고등학교,고등학교,1964-03-06,사립,본교,운영,대구광역시 동구 신천동 850-6,대구광역시 동구 국채보상로 827,7240000,대구광역시교육청,7251000,대구광역시동부교육지원청,2013-11-29,2025-10-25,35.8686552479,128.620571604,2026-03-20
B000008648,강동중학교,중학교,2004-03-01,공립,본교,운영,대구광역시 동구 신서동 559,대구광역시 동구 동호로 112,7240000,대구광역시교육청,7251000,대구광역시동부교육지원청,2013-11-29,2025-10-25,35.8669491097,128.7294740376,2026-03-20
B000005228,도학초등학교,초등학교,1961-08-07,공립,본교,운영,강원특별자치도 고성군 토성면 도원리 193-1,강원특별자치도 고성군 토성면 무릉도원로 486,7801000,강원특별자치도교육청,7972000,강원특별자치도고성교육지원청,2013-11-29,2025-10-25,38.2718994835,128.5009770712,2026-03-20
B000001870,서울원묵초등학교,초등학교,1995-09-01,공립,본교,운영,서울특별시 중랑구 묵동 11,서울특별시 중랑구 숙선옹주로 109,7010000,서울특별시교육청,7021000,서울특별시동부교육지원청,2013-11-29,2025-10-25,37.6177488108,127.0868141509,2026-03-20
B000012014,화곡고등학교,고등학교,1978-01-30,사립,본교,운영,서울특별시 강서구 내발산동 산48-3,서울특별시 강서구 강서로45길 69,7010000,서울특별시교육청,7081300,서울특별시강서양천교육지원청,2013-11-29,2025-10-25,37.5479361125,126.8315356778,2026-03-20
B000003356,동대전초등학교,초등학교,1985-09-10,공립,본교,운영,대전광역시 동구 가양동 34-6,대전광역시 동구 비래서로62번길 60,7430000,대전광역시교육청,7441000,대전광역시동부교육지원청,2013-11-29,2025-10-25,36.3521936206,127.4493023,2026-03-20
B000003419,대전둔원초등학교,초등학교,1995-09-01,공립,본교,운영,대전광역시 서구 갈마동 1417,대전광역시 서구 대덕대로112번길 10,7430000,대전광역시교육청,7451000,대전광역시서부교육지원청,2013-11-29,2025-10-25,36.3430904725,127.3749798914,2026-03-20
B000012644,안성여자고등학교,고등학교,1943-04-30,공립,본교,운영,경기도 안성시 신소현동 110,경기도 안성시 남파로 73-10,7530000,경기도교육청,7761000,경기도안성교육지원청,2013-11-29,2025-10-25,37.01814312,127.257949,2026-03-20
B000024307,나루초등학교,초등학교,2023-03-01,공립,본교,운영,세종특별자치시 집현동 927-1,세종특별자치시 집현서로 90,9300000,세종특별자치시교육청,9300000,세종특별자치시교육청,2013-11-29,2025-10-25,36.4953933092,127.3236308951,2026-03-20
B000002842,대구대천초등학교,초등학교,1998-09-01,공립,본교,운영,대구광역시 북구 읍내동 1366,대구광역시 북구 구암로21길 54,7240000,대구광역시교육청,7261000,대구광역시서부교육지원청,2013-11-29,2025-10-25,35.9372091057,128.5543646044,2026-03-20
B000007653,구산초등학교,초등학교,2000-10-02,공립,본교,운영,경상남도 김해시 구산동 408,경상남도 김해시 가락로 310-36,9010000,경상남도교육청,9091000,경상남도김해교육지원청,2013-11-29,2025-10-25,35.2541019701,128.8744875222,2026-03-20
B000007666,김해구지초등학교,초등학교,2005-09-01,공립,본교,운영,경상남도 김해시 구산동 1053,경상남도 김해시 구산로5번길 45,9010000,경상남도교육청,9091000,경상남도김해교육지원청,2013-11-29,2025-10-25,35.2529810676,128.8697305796,2026-03-20
B000002315,서울신길초등학교,초등학교,1964-03-12,공립,본교,운영,서울특별시 동작구 대방동 351-6,서울특별시 동작구 알마타길 16,7010000,서울특별시교육청,7132000,서울특별시동작관악교육지원청,2013-11-29,2025-10-25,37.51087166,126.9267292,2026-03-20
B000013389,남지고등학교,고등학교,1952-05-26,사립,본교,운영,경상남도 창녕군 남지읍 남지리 829-10,경상남도 창녕군 남지읍 남고길 11,9010000,경상남도교육청,9141000,경상남도창녕교육지원청,2013-11-29,2025-10-25,35.3864698488,128.4722490364,2026-03-20
B000008377,은성중학교,중학교,1955-02-15,사립,본교,운영,서울특별시 강남구 도곡동 938-10,서울특별시 강남구 남부순환로359길 36,7010000,서울특별시교육청,7091300,서울특별시강남서초교육지원청,2013-11-29,2025-10-25,37.4883785724,127.0352323611,2026-03-20
B000003853,안양중앙초등학교,초등학교,1984-09-04,공립,본교,운영,경기도 안양시 동안구 비산동 423,경기도 안양시 동안구 경수대로883번길 11,7530000,경기도교육청,7569000,경기도안양과천교육지원청,2013-11-29,2025-10-25,37.3955313789,126.9377855026,2026-03-20
B000010150,서천중학교,중학교,1946-12-12,공립,본교,운영,충청남도 서천군 서천읍 군사리 601,충청남도 서천군 서천읍 충절로 97,8140000,충청남도교육청,8241000,충청남도서천교육지원청,2013-11-29,2025-10-25,36.0754084414,126.6928791813,2026-03-20
B000008983,동신중학교,중학교,1969-03-06,공립,본교,운영,대전광역시 동구 판암동 241,대전광역시 동구 동부로 56-22,7430000,대전광역시교육청,7441000,대전광역시동부교육지원청,2013-11-29,2025-10-25,36.3202964,127.4595324153,2026-03-20
B000002150,서울오금초등학교,초등학교,1993-09-01,공립,본교,운영,서울특별시 송파구 오금동 7,서울특별시 송파구 위례성대로22길 11,7010000,서울특별시교육청,7130000,서울특별시강동송파교육지원청,2013-11-29,2025-10-25,37.5088663412,127.1323311533,2026-03-20
B000012674,일산동고등학교,고등학교,1995-03-01,공립,본교,운영,경기도 고양시 일산서구 탄현동 1471,경기도 고양시 일산서구 탄현로 100,7530000,경기도교육청,7621000,경기도고양교육지원청,2013-11-29,2025-10-25,37.7006518987,126.7686598004,2026-03-20
B000008313,목동중학교,중학교,1981-05-20,공립,본교,운영,서울특별시 양천구 신정동 85-168,서울특별시 양천구 목동동로 172,7010000,서울특별시교육청,7081300,서울특별시강서양천교육지원청,2013-11-29,2025-10-25,37.5209571978,126.8714631,2026-03-20
B000003071,인천성리초등학교,초등학교,1999-03-01,공립,본교,운영,인천광역시 남동구 구월동 1487,인천광역시 남동구 성리로 32-2,7310000,인천광역시교육청,7341000,인천광역시동부교육지원청,2013-11-29,2025-10-25,37.4457367952,126.7099273,2026-03-20
B000008238,중앙중학교,중학교,1908-06-20,사립,본교,운영,서울특별시 종로구 계동 1,서울특별시 종로구 창덕궁길 164,7010000,서울특별시교육청,7061000,서울특별시중부교육지원청,2013-11-29,2025-10-25,37.5837882231,126.9874726221,2026-03-20
B000010912,금천중학교,중학교,1952-02-10,공립,본교,운영,경상북도 청도군 금천면 동곡리 1000-1,경상북도 청도군 금천면 선암로 574-11,8750000,경상북도교육청,8911000,경상북도청도교육지원청,2013-11-29,2025-10-25,35.6880759545,128.8947636,2026-03-20
B000013402,옥종고등학교,고등학교,1973-03-06,공립,본교,운영,경상남도 하동군 옥종면 양구리 41-1,경상남도 하동군 옥종면 옥수로 4-9,9010000,경상남도교육청,9181000,경상남도하동교육지원청,2013-11-29,2025-10-25,35.1781630658,127.8845971994,2026-03-20
B000012120,동인고등학교,고등학교,1974-03-05,사립,본교,운영,부산광역시 동래구 사직동 981-90,부산광역시 동래구 쇠미로31번길 34,7150000,부산광역시교육청,7191000,부산광역시동래교육지원청,2013-11-29,2025-10-25,35.1985219328,129.0509968556,2026-03-20
B000004188,안녕초등학교,초등학교,2006-03-01,공립,본교,운영,경기도 화성시 안녕동 50-8,경기도 화성시 화산로 2,7530000,경기도교육청,7679000,경기도화성오산교육지원청,2013-11-29,2025-10-25,37.2058922158,127.0085343097,2026-03-20
B000013295,합포고등학교,고등학교,1989-02-18,공립,본교,운영,경상남도 창원시 마산합포구 교방동 170-1,경상남도 창원시 마산합포구 무학로 458,9010000,경상남도교육청,9022000,경상남도창원교육지원청,2013-11-29,2025-10-25,35.20941219,128.5643385877,2026-03-20
B000001875,서울신내초등학교,초등학교,1994-03-01,공립,본교,운영,서울특별시 중랑구 신내동 444,서울특별시 중랑구 용마산로125나길 22,7010000,서울특별시교육청,7021000,서울특별시동부교육지원청,2013-11-29,2025-10-25,37.6049342236,127.1001284621,2026-03-20
B000001866,서울중곡초등학교,초등학교,1967-09-05,공립,본교,운영,서울특별시 중랑구 면목동 380,서울특별시 중랑구 면목로23길 20,7010000,서울특별시교육청,7021000,서울특별시동부교육지원청,2013-11-29,2025-10-25,37.5748917275,127.0834390437,2026-03-20
B000005100,마차초등학교,초등학교,1941-06-01,공립,본교,운영,강원특별자치도 영월군 북면 마차리 1359,강원특별자치도 영월군 북면 밤재로 221,7801000,강원특별자치도교육청,7902000,강원특별자치도영월교육지원청,2013-11-29,2025-10-25,37.2574411161,128.4536986934,2026-03-20
B000013458,원묵고등학교,고등학교,2007-05-31,공립,본교,운영,서울특별시 중랑구 묵동 23,서울특별시 중랑구 숙선옹주로 82,7010000,서울특별시교육청,7021000,서울특별시동부교육지원청,2013-11-29,2025-10-25,37.615232314,127.0855077845,2026-03-20
B000001850,서울전농초등학교,초등학교,1942-04-08,공립,본교,운영,서울특별시 동대문구 전농동 298,서울특별시 동대문구 사가정로 66,7010000,서울특별시교육청,7021000,서울특별시동부교육지원청,2013-11-29,2025-10-25,37.5747303146,127.0543331391,2026-03-20
B000002758,대구동신초등학교,초등학교,1970-09-01,공립,본교,운영,대구광역시 동구 신암동 487,대구광역시 동구 송라로 123,7240000,대구광역시교육청,7251000,대구광역시동부교육지원청,2013-11-29,2025-10-25,35.8782747051,128.6150276623,2026-03-20
B000002816,대구중리초등학교,초등학교,1954-04-01,공립,본교,운영,대구광역시 서구 이현동 48-60,대구광역시 서구 국채보상로 135,7240000,대구광역시교육청,7261000,대구광역시서부교육지원청,2013-11-29,2025-10-25,35.8697138315,128.5454392,2026-03-20
B000005115,장평초등학교,초등학교,1954-02-02,공립,본교,운영,강원특별자치도 평창군 용평면 장평리 404-1,강원특별자치도 평창군 용평면 갈정지길 35-43,7801000,강원특별자치도교육청,7912000,강원특별자치도평창교육지원청,2013-11-29,2025-10-25,37.5925637283,128.4107168782,2026-03-20
B000022762,서울공진초등학교,초등학교,1992-11-05,공립,본교,운영,서울특별시 강서구 마곡동 749-2,서울특별시 강서구 마곡서로 33,7010000,서울특별시교육청,7081300,서울특별시강서양천교육지원청,2013-11-29,2025-10-25,37.55780477,126.8226103516,2026-03-20
B000013266,이서고등학교,고등학교,1966-01-17,사립,본교,운영,경상북도 청도군 이서면 서원리 321-3,경상북도 청도군 이서면 학산1길 22,8750000,경상북도교육청,8911000,경상북도청도교육지원청,2013-11-29,2025-10-25,35.6624946717,128.6684614385,2026-03-20
B000002314,서울영화초등학교,초등학교,1962-09-03,공립,본교,운영,서울특별시 동작구 대방동 44-3,서울특별시 동작구 등용로8길 3,7010000,서울특별시교육청,7132000,서울특별시동작관악교육지원청,2013-11-29,2025-10-25,37.50890811,126.9329735,2026-03-20
B000003866,안양관악초등학교,초등학교,2000-03-01,공립,본교,운영,경기도 안양시 동안구 관양동 367-2,경기도 안양시 동안구 일동로 201,7530000,경기도교육청,7569000,경기도안양과천교육지원청,2013-11-29,2025-10-25,37.4066485537,126.9681913711,2026-03-20
B000005883,대술초등학교,초등학교,1931-06-01,공립,본교,운영,충청남도 예산군 대술면 화천리 365,충청남도 예산군 대술면 원농리길 12,8140000,충청남도교육청,8271000,충청남도예산교육지원청,2013-11-29,2025-10-25,36.6566797742,126.8960835367,2026-03-20
B000007609,벽방초등학교,초등학교,1922-04-15,공립,본교,운영,경상남도 통영시 광도면 안정리 1035-5,경상남도 통영시 광도면 안정로 815,9010000,경상남도교육청,9071000,경상남도통영교육지원청,2013-11-29,2025-10-25,34.9484546373,128.409925656,2026-03-20
B000002878,대구대곡초등학교,초등학교,1996-09-01,공립,본교,운영,대구광역시 달서구 도원동 1458,대구광역시 달서구 도원남로 60,7240000,대구광역시교육청,7271000,대구광역시남부교육지원청,2013-11-29,2025-10-25,35.8032985993,128.5357038606,2026-03-20
B000008927,풍암중학교,중학교,2000-03-02,공립,본교,운영,광주광역시 서구 풍암동 1098,광주광역시 서구 풍암순환로 51,7380000,광주광역시교육청,7401000,광주광역시서부교육지원청,2013-11-29,2025-10-25,35.1223590427,126.8781231485,2026-03-20
B000002734,대구수창초등학교,초등학교,1907-07-13,공립,본교,운영,대구광역시 중구 수창동 73,대구광역시 중구 달성로22길 30,7240000,대구광역시교육청,7251000,대구광역시동부교육지원청,2013-11-29,2025-10-25,35.87429166,128.5834452555,2026-03-20
B000009395,대흥중학교,중학교,1995-03-03,공립,본교,운영,경기도 시흥시 대야동 377-70,경기도 시흥시 서해안로 1587,7530000,경기도교육청,7781000,경기도시흥교육지원청,2013-11-29,2025-10-25,37.4474401608,126.7840729758,2026-03-20
B000002281,서울구룡초등학교,초등학교,1985-05-06,공립,본교,운영,서울특별시 강남구 개포동 655,서울특별시 강남구 개포로 263,7010000,서울특별시교육청,7091300,서울특별시강남서초교육지원청,2013-11-29,2025-10-25,37.48119739,127.0517714,2026-03-20
B000012210,대곡고등학교,고등학교,2003-03-03,공립,본교,운영,대구광역시 달서구 도원동 1459,대구광역시 달서구 도원남로 80,7240000,대구광역시교육청,7271000,대구광역시남부교육지원청,2013-11-29,2025-10-25,35.8032373606,128.536857028,2026-03-20
B000003478,학하초등학교,초등학교,1963-04-20,공립,본교,운영,대전광역시 유성구 학하동 580-1,대전광역시 유성구 진잠옛로 165,7430000,대전광역시교육청,7451000,대전광역시서부교육지원청,2013-11-29,2025-10-25,36.3345413235,127.3118275883,2026-03-20
B000003264,유촌초등학교,초등학교,1998-03-01,공립,본교,운영,광주광역시 서구 쌍촌동 1320-2,광주광역시 서구 내방로 153,7380000,광주광역시교육청,7401000,광주광역시서부교육지원청,2013-11-29,2025-10-25,35.1591400408,126.8579562866,2026-03-20
B000002438,부민초등학교,초등학교,1921-10-15,공립,본교,운영,부산광역시 서구 부용동2가 11,부산광역시 서구 고운들로 12,7150000,부산광역시교육청,7171000,부산광역시서부교육지원청,2013-11-29,2025-10-25,35.1059700795,129.0199210599,2026-03-20
B000005362,한국교원대학교부설월곡초등학교,초등학교,1943-04-08,국립,본교,운영,충청북도 청주시 흥덕구 강내면 월곡리 230,충청북도 청주시 흥덕구 강내면 가로수로 562,8000000,충청북도교육청,8011000,충청북도청주교육지원청,2013-11-29,2025-10-25,36.6232939401,127.3623673815,2026-03-20
B000007330,동산초등학교,초등학교,1952-05-06,공립,본교,운영,경상북도 청도군 매전면 동산리 233-5,경상북도 청도군 매전면 동산길 43,8750000,경상북도교육청,8911000,경상북도청도교육지원청,2013-11-29,2025-10-25,35.6674566266,128.8547025,2026-03-20
B000012773,원주금융회계고등학교,고등학교,1980-11-26,공립,본교,운영,강원특별자치도 원주시 부론면 법천리 1442,강원특별자치도 원주시 부론면 부귀로 35,7801000,강원특별자치도교육청,7822000,강원특별자치도원주교육지원청,2013-11-29,2025-10-25,37.207826948,127.7516584684,2026-03-20
B000010932,인평중학교,중학교,2009-03-01,공립,본교,운영,경상북도 칠곡군 북삼읍 인평리 518-2,경상북도 칠곡군 북삼읍 북삼로 223,8750000,경상북도교육청,8941000,경상북도칠곡교육지원청,2013-11-29,2025-10-25,36.0625935189,128.3356923,2026-03-20
B000002219,서울신곡초등학교,초등학교,1984-10-22,공립,본교,운영,서울특별시 강서구 화곡동 476-42,서울특별시 강서구 등촌로13자길 42-14,7010000,서울특별시교육청,7081300,서울특별시강서양천교육지원청,2013-11-29,2025-10-25,37.5390954575,126.8560095693,2026-03-20
B000004988,조산초등학교,초등학교,1944-04-10,공립,본교,운영,강원특별자치도 양양군 양양읍 조산리 450-5,강원특별자치도 양양군 양양읍 동해대로 3020,7801000,강원특별자치도교육청,7863000,강원특별자치도속초양양교육지원청,2013-11-29,2025-10-25,38.1137111073,128.6323998269,2026-03-20
B000002829,대구구암초등학교,초등학교,1995-09-01,공립,본교,운영,대구광역시 북구 구암동 694-1,대구광역시 북구 학정로 245,7240000,대구광역시교육청,7261000,대구광역시서부교육지원청,2013-11-29,2025-10-25,35.9281013,128.5577604037,2026-03-20
B000012067,단국대학교사범대학부속고등학교,고등학교,1983-12-26,사립,본교,운영,서울특별시 강남구 대치동 1013,서울특별시 강남구 도곡로64길 21,7010000,서울특별시교육청,7091300,서울특별시강남서초교육지원청,2013-11-29,2025-10-25,37.49561749,127.0577682,2026-03-20
B000013333,진주외국어고등학교,고등학교,1970-12-26,사립,본교,운영,경상남도 진주시 일반성면 개암리 884,경상남도 진주시 일반성면 동부로 2014-6,9010000,경상남도교육청,9051000,경상남도진주교육지원청,2013-11-29,2025-10-25,35.1696561815,128.2816679523,2026-03-20
B000022925,용남고등학교,고등학교,1991-03-09,공립,본교,운영,충청남도 계룡시 신도안면 남선리 1278,충청남도 계룡시 신도안면 신도안1길 32,8140000,충청남도교육청,8222000,충청남도논산계룡교육지원청,2013-11-29,2025-10-25,36.2943092119,127.2447646203,2026-03-20
B000010931,장곡중학교,중학교,2001-03-06,공립,본교,운영,경상북도 칠곡군 석적읍 중리 246,경상북도 칠곡군 석적읍 남중리8길 13,8750000,경상북도교육청,8941000,경상북도칠곡교육지원청,2013-11-29,2025-10-25,36.0734554758,128.4150883,2026-03-20
B000011284,대정중학교,중학교,1946-11-08,공립,본교,운영,제주특별자치도 서귀포시 대정읍 하모리 778,제주특별자치도 서귀포시 대정읍 비행장로 18,9290000,제주특별자치도교육청,9299000,제주특별자치도서귀포시교육지원청,2013-11-29,2025-10-25,33.21996162,126.2532327,2026-03-20
B000008177,안천중학교,중학교,1991-03-01,공립,본교,운영,서울특별시 금천구 독산동 1089,서울특별시 금천구 한내로 69-44,7010000,서울특별시교육청,7041000,서울특별시남부교육지원청,2013-11-29,2025-10-25,37.4595242629,126.8874987712,2026-03-20
B000004263,하안초등학교,초등학교,1989-10-12,공립,본교,운영,경기도 광명시 하안동 649,경기도 광명시 안현로 16,7530000,경기도교육청,7591000,경기도광명교육지원청,2013-11-29,2025-10-25,37.4630604348,126.8739889743,2026-03-20
B000008318,봉영여자중학교,중학교,1951-10-08,사립,본교,운영,서울특별시 양천구 신정동 325-8,서울특별시 양천구 목동동로2길 68,7010000,서울특별시교육청,7081300,서울특별시강서양천교육지원청,2013-11-29,2025-10-25,37.5092159752,126.8601984259,2026-03-20
B000009722,백학중학교,중학교,1962-04-02,공립,본교,운영,경기도 연천군 백학면 두일리 568-4,경기도 연천군 백학면 두일로 79,7530000,경기도교육청,7701000,경기도연천교육지원청,2013-11-29,2025-10-25,38.0250315118,126.9082653,2026-03-20
B000002854,대구북부초등학교,초등학교,1995-09-01,공립,본교,운영,대구광역시 북구 동천동 880,대구광역시 북구 동천로 20,7240000,대구광역시교육청,7261000,대구광역시서부교육지원청,2013-11-29,2025-10-25,35.9334796473,128.5592140247,2026-03-20
B000002135,서울잠실초등학교,초등학교,1975-11-01,공립,본교,운영,서울특별시 송파구 신천동 20-2,서울특별시 송파구 올림픽로35길 20,7010000,서울특별시교육청,7130000,서울특별시강동송파교육지원청,2013-11-29,2025-10-25,37.52010753,127.1113113853,2026-03-20
B000025000,서울자곡초등학교,초등학교,2014-08-28,공립,본교,운영,서울특별시 강남구 자곡동 642,서울특별시 강남구 자곡로 150,7010000,서울특별시교육청,7091300,서울특별시강남서초교육지원청,2013-12-02,2025-10-25,37.4721907191,127.0996665,2026-03-20
B000011764,김해생명과학고등학교,고등학교,1927-05-05,공립,본교,운영,경상남도 김해시 외동 743,경상남도 김해시 금관대로 1239,9010000,경상남도교육청,9091000,경상남도김해교육지원청,2013-11-29,2025-10-25,35.2372389783,128.8552701706,2026-03-20
B000002832,대구매천초등학교,초등학교,1949-09-01,공립,본교,운영,대구광역시 북구 매천동 173,대구광역시 북구 매천로 179,7240000,대구광역시교육청,7261000,대구광역시서부교육지원청,2013-11-29,2025-10-25,35.9133265119,128.5410366928,2026-03-20
B000002863,대구남명초등학교,초등학교,1984-03-01,공립,본교,운영,대구광역시 남구 대명동 483,대구광역시 남구 큰골4길 41,7240000,대구광역시교육청,7271000,대구광역시남부교육지원청,2013-11-29,2025-10-25,35.8343638478,128.5819866405,2026-03-20
B000005879,예산중앙초등학교,초등학교,1957-10-07,공립,본교,운영,충청남도 예산군 예산읍 주교리 250-5,충청남도 예산군 예산읍 주교로 21,8140000,충청남도교육청,8271000,충청남도예산교육지원청,2013-11-29,2025-10-25,36.6841874378,126.8314071883,2026-03-20
B000009467,철산중학교,중학교,1983-03-01,공립,본교,운영,경기도 광명시 철산동 558,경기도 광명시 철망산로 71,7530000,경기도교육청,7591000,경기도광명교육지원청,2013-11-29,2025-10-25,37.4703083188,126.8753237375,2026-03-20
B000004278,철산초등학교,초등학교,1982-09-11,공립,본교,운영,경기도 광명시 철산동 555,경기도 광명시 하안로 392,7530000,경기도교육청,7591000,경기도광명교육지원청,2013-11-29,2025-10-25,37.4697943306,126.8745934223,2026-03-20
B000007996,일도초등학교,초등학교,1968-03-02,공립,본교,운영,제주특별자치도 제주시 일도이동 1038-1,제주특별자치도 제주시 삼성로9길 27,9290000,제주특별자치도교육청,9296000,제주특별자치도제주시교육지원청,2013-11-29,2025-10-25,33.50907824,126.5294157,2026-03-20
B000012840,고성고등학교,고등학교,1958-05-25,공립,본교,운영,강원특별자치도 고성군 간성읍 상리 361,강원특별자치도 고성군 간성읍 수성로 125,7801000,강원특별자치도교육청,7972000,강원특별자치도고성교육지원청,2013-11-29,2025-10-25,38.3782834002,128.4610028672,2026-03-20
B000011808,부산해사고등학교,고등학교,1978-03-27,국립,본교,운영,부산광역시 영도구 동삼동 1167,부산광역시 영도구 해양로 425,7150000,부산광역시교육청,7171000,부산광역시서부교육지원청,2013-11-29,2025-10-25,35.0741904987,129.077017515,2026-03-20
B000010756,복주여자중학교,중학교,1981-12-08,공립,본교,운영,경상북도 안동시 당북동 333-1,경상북도 안동시 안기천로 58,8750000,경상북도교육청,8791000,경상북도안동교육지원청,2013-11-29,2025-10-25,36.5625941651,128.7180369108,2026-03-20
B000008074,성읍초등학교,초등학교,1937-09-01,공립,본교,운영,제주특별자치도 서귀포시 표선면 성읍리 1002,제주특별자치도 서귀포시 표선면 성읍민속로 65,9290000,제주특별자치도교육청,9299000,제주특별자치도서귀포시교육지원청,2013-11-29,2025-10-25,33.384274822,126.7985092885,2026-03-20
B000008071,태흥초등학교,초등학교,1947-03-02,공립,본교,운영,제주특별자치도 서귀포시 남원읍 태흥리 970-3,제주특별자치도 서귀포시 남원읍 태위로 915,9290000,제주특별자치도교육청,9299000,제주특별자치도서귀포시교육지원청,2013-11-29,2025-10-25,33.28622541,126.7434137,2026-03-20
B000008872,인천청라중학교,중학교,2011-03-01,공립,본교,운영,인천광역시 서구 청라동 125-4,인천광역시 서구 청라라임로 112,7310000,인천광역시교육청,7361000,인천광역시서부교육지원청,2013-11-29,2025-10-25,37.5378394134,126.6538740277,2026-03-20
B000003029,인천부평동초등학교,초등학교,1940-04-06,공립,본교,운영,인천광역시 부평구 부평동 440-1,인천광역시 부평구 부평대로88번길 19,7310000,인천광역시교육청,7331000,인천광역시북부교육지원청,2013-11-29,2025-10-25,37.499513981,126.7244083113,2026-03-20
B000003333,동곡초등학교,초등학교,1932-06-01,공립,본교,운영,광주광역시 광산구 하산동 141,광주광역시 광산구 동곡로 151-17,7380000,광주광역시교육청,7401000,광주광역시서부교육지원청,2013-11-29,2025-10-25,35.0981012305,126.7735414668,2026-03-20
B000009736,동산중학교,중학교,1970-03-10,공립,본교,운영,강원특별자치도 춘천시 동산면 조양리 703-1,강원특별자치도 춘천시 동산면 영서로 461-22,7801000,강원특별자치도교육청,7812000,강원특별자치도춘천교육지원청,2013-11-29,2025-10-25,37.7502283495,127.790963086,2026-03-20
B000013196,경안고등학교,고등학교,1954-05-14,사립,본교,운영,경상북도 안동시 금곡동 124-17,경상북도 안동시 제비원로 182,8750000,경상북도교육청,8791000,경상북도안동교육지원청,2013-11-29,2025-10-25,36.56850446,128.7204749,2026-03-20
B000005908,원북초등학교,초등학교,1932-06-11,공립,본교,운영,충청남도 태안군 원북면 반계리 222,충청남도 태안군 원북면 원이로 849-3,8140000,충청남도교육청,8281000,충청남도태안교육지원청,2013-11-29,2025-10-25,36.8262041003,126.2585619197,2026-03-20
B000009077,유곡중학교,중학교,2003-03-05,공립,본교,운영,울산광역시 중구 태화동 196,울산광역시 중구 유곡로 85,7480000,울산광역시교육청,7491000,울산광역시강북교육지원청,2013-11-29,2025-10-25,35.5588249667,129.2995910068,2026-03-20
B000012878,보은고등학교,고등학교,1976-03-06,사립,본교,운영,충청북도 보은군 보은읍 죽전리 61,충청북도 보은군 보은읍 보은로 17,8000000,충청북도교육청,8051000,충청북도보은교육지원청,2013-11-29,2025-10-25,36.4753094758,127.7205512185,2026-03-20
B000005372,가덕초등학교,초등학교,1921-05-11,공립,본교,운영,충청북도 청주시 상당구 가덕면 병암리 125,충청북도 청주시 상당구 가덕면 단재로 1448,8000000,충청북도교육청,8011000,충청북도청주교육지원청,2013-11-29,2025-10-25,36.5779265,127.5784827,2026-03-20
B000010913,이서중학교,중학교,1952-03-01,사립,본교,운영,경상북도 청도군 이서면 서원리 321-3,경상북도 청도군 이서면 학산1길 22,8750000,경상북도교육청,8911000,경상북도청도교육지원청,2013-11-29,2025-10-25,35.6624946717,128.6684614385,2026-03-20
B000013549,충현고등학교,고등학교,1997-03-05,공립,본교,운영,경기도 광명시 소하동 991-1,경기도 광명시 오리로348번길 62,7530000,경기도교육청,7591000,경기도광명교육지원청,2013-11-29,2025-10-25,37.4329599594,126.884528072,2026-03-20
B000011564,정선정보공업고등학교,고등학교,1951-09-01,공립,본교,운영,강원특별자치도 정선군 정선읍 북실리 765-1,강원특별자치도 정선군 정선읍 용담샛길 2,7801000,강원특별자치도교육청,7922000,강원특별자치도정선교육지원청,2013-11-29,2025-10-25,37.3804561211,128.6471346072,2026-03-20
B000012183,경덕여자고등학교,고등학교,1983-09-23,공립,본교,운영,대구광역시 서구 중리동 100-1,대구광역시 서구 국채보상로34길 50,7240000,대구광역시교육청,7261000,대구광역시서부교육지원청,2013-11-29,2025-10-25,35.8635711902,128.5489380796,2026-03-20
B000002289,서울논현초등학교,초등학교,1972-11-23,공립,본교,운영,서울특별시 강남구 논현동 168,서울특별시 강남구 강남대로120길 33,7010000,서울특별시교육청,7091300,서울특별시강남서초교육지원청,2013-11-29,2025-10-25,37.5084232,127.0262229,2026-03-20
B000012767,치악고등학교,고등학교,2005-03-01,공립,본교,운영,강원특별자치도 원주시 관설동 1798-1,강원특별자치도 원주시 치악고교길 16,7801000,강원특별자치도교육청,7822000,강원특별자치도원주교육지원청,2013-11-29,2025-10-25,37.3157646822,127.9585892,2026-03-20
B000005161,장흥초등학교,초등학교,1955-09-01,공립,본교,운영,강원특별자치도 철원군 동송읍 장흥리 242-3,강원특별자치도 철원군 동송읍 태봉로 2017,7801000,강원특별자치도교육청,7932000,강원특별자치도철원교육지원청,2013-11-29,2025-10-25,38.1933713147,127.2668579426,2026-03-20
B000004389,안성초등학교,초등학교,1902-09-15,공립,본교,운영,경기도 안성시 구포동 170,경기도 안성시 혜산로 13,7530000,경기도교육청,7761000,경기도안성교육지원청,2013-11-29,2025-10-25,37.012270098,127.2725354182,2026-03-20
B000007152,영천초등학교,초등학교,1911-09-01,공립,본교,운영,경상북도 영천시 금노동 504-1,경상북도 영천시 천문로 253,8750000,경상북도교육청,8821000,경상북도영천교육지원청,2013-11-29,2025-10-25,35.9617556009,128.9314309329,2026-03-20
B000011032,창원대산중학교,중학교,1949-04-26,사립,본교,운영,경상남도 창원시 의창구 대산면 제동리 280,경상남도 창원시 의창구 대산면 진산대로 380,9010000,경상남도교육청,9022000,경상남도창원교육지원청,2013-11-29,2025-10-25,35.33415986,128.7104330017,2026-03-20
B000026473,인천검단호수초등학교,초등학교,2026-03-01,공립,본교,운영,인천광역시 서구 불로동 483-6,,7310000,인천광역시교육청,7361000,인천광역시서부교육지원청,2013-11-29,2026-04-13,37.6088514397,126.6834777203,2026-03-20
B000004405,서운초등학교,초등학교,1927-04-10,공립,본교,운영,경기도 안성시 서운면 동촌리 146-2,경기도 안성시 서운면 서운초교길 24,7530000,경기도교육청,7761000,경기도안성교육지원청,2013-11-29,2025-10-25,36.9464627182,127.2549897714,2026-03-20
B000001894,서울불광초등학교,초등학교,1962-04-18,공립,본교,운영,서울특별시 은평구 불광동 272-2,서울특별시 은평구 불광로 51,7010000,서울특별시교육청,7031000,서울특별시서부교육지원청,2013-11-29,2025-10-25,37.6134294464,126.9307187123,2026-03-20
B000002722,죽성초등학교,초등학교,1957-04-16,공립,본교,운영,부산광역시 기장군 기장읍 죽성리 86,부산광역시 기장군 기장읍 죽성로 270,7150000,부산광역시교육청,7211000,부산광역시해운대교육지원청,2013-11-29,2025-10-25,35.2427562705,129.2436029475,2026-03-20
B000010997,안민중학교,중학교,2007-03-01,공립,본교,운영,경상남도 창원시 성산구 안민동 639-1,경상남도 창원시 성산구 안민로160번길 11,9010000,경상남도교육청,9022000,경상남도창원교육지원청,2013-11-29,2025-10-25,35.1836541559,128.6933756933,2026-03-20
B000011664,나주상업고등학교,고등학교,1967-03-08,공립,본교,운영,전라남도 나주시 청동 88-1,전라남도 나주시 함박산길 23-4,8490000,전라남도교육청,8531000,전라남도나주교육지원청,2013-11-29,2025-10-25,35.0426959396,126.7224109555,2026-03-20
B000002752,대구용호초등학교,초등학교,1999-03-02,공립,본교,운영,대구광역시 동구 방촌동 1113-319,대구광역시 동구 동촌로56길 82,7240000,대구광역시교육청,7251000,대구광역시동부교육지원청,2013-11-29,2025-10-25,35.8773573984,128.6723645,2026-03-20
B000009526,안성중학교,중학교,1939-03-24,공립,본교,운영,경기도 안성시 금산동 33-12,경기도 안성시 금산길 43,7530000,경기도교육청,7761000,경기도안성교육지원청,2013-11-29,2025-10-25,37.0133133267,127.2704647904,2026-03-20
B000002131,서울잠일초등학교,초등학교,1976-03-12,공립,본교,운영,서울특별시 송파구 잠실동 19-1,서울특별시 송파구 올림픽로 95,7010000,서울특별시교육청,7130000,서울특별시강동송파교육지원청,2013-11-29,2025-10-25,37.5147416618,127.081636217,2026-03-20
B000008476,태종대중학교,중학교,1975-03-01,공립,본교,운영,부산광역시 영도구 동삼동 523-1,부산광역시 영도구 함지로79번길 9,7150000,부산광역시교육청,7171000,부산광역시서부교육지원청,2013-11-29,2025-10-25,35.0736739612,129.0649204553,2026-03-20
B000002570,혜화초등학교,초등학교,1965-01-27,사립,본교,운영,부산광역시 동래구 명장동 산12,부산광역시 동래구 명장로99번길 25,7150000,부산광역시교육청,7191000,부산광역시동래교육지원청,2013-11-29,2025-10-25,35.2022604662,129.113293827,2026-03-20
B000002601,연신초등학교,초등학교,1984-03-01,공립,본교,운영,부산광역시 연제구 연산동 302-1,부산광역시 연제구 신금로23번길 30,7150000,부산광역시교육청,7191000,부산광역시동래교육지원청,2013-11-29,2025-10-25,35.1924823057,129.0931595056,2026-03-20
B000011331,홍익디자인고등학교,고등학교,1968-03-01,사립,본교,운영,서울특별시 마포구 연남동 369-1,서울특별시 마포구 성미산로 111,7010000,서울특별시교육청,7031000,서울특별시서부교육지원청,2013-11-29,2025-10-25,37.5635106358,126.9191662788,2026-03-20
B000011107,한림중학교,중학교,1953-03-01,사립,본교,운영,경상남도 김해시 한림면 장방리 346,경상남도 김해시 한림면 한림로365번길 33,9010000,경상남도교육청,9091000,경상남도김해교육지원청,2013-11-29,2025-10-25,35.3217216196,128.7996056366,2026-03-20
B000013199,성창여자고등학교,고등학교,1981-03-05,사립,본교,운영,경상북도 안동시 안기동 312,경상북도 안동시 석수길 53,8750000,경상북도교육청,8791000,경상북도안동교육지원청,2013-11-29,2025-10-25,36.5787438048,128.7126188835,2026-03-20
B000002117,서울한남초등학교,초등학교,1906-09-23,공립,본교,운영,서울특별시 용산구 한남동 726-1,서울특별시 용산구 한남대로 112,7010000,서울특별시교육청,7061000,서울특별시중부교육지원청,2013-11-29,2025-10-25,37.5392036532,127.0055998474,2026-03-20
B000003607,명산초등학교,초등학교,1944-03-20,공립,본교,운영,울산광역시 울주군 서생면 명산리 495-1,울산광역시 울주군 서생면 화산발리로 60,7480000,울산광역시교육청,7501000,울산광역시강남교육지원청,2013-11-29,2025-10-25,35.3510739389,129.2961501472,2026-03-20
B000026689,별가람초등학교,초등학교,2015-03-01,공립,본교,운영,경기도 남양주시 별내동 920,경기도 남양주시 별내3로 173,7530000,경기도교육청,7652000,경기도구리남양주교육지원청,2013-11-29,2025-10-25,37.6541801035,127.1242259361,2026-03-20
B000023943,광양마동중학교,중학교,2015-03-01,공립,본교,운영,전라남도 광양시 마동 1020,전라남도 광양시 느지매기길 7,8490000,전라남도교육청,8551000,전라남도광양교육지원청,2013-11-29,2025-10-25,34.95426716,127.6878322112,2026-03-20
B000002088,서울명신초등학교,초등학교,1971-10-06,공립,본교,운영,서울특별시 종로구 창신동 7-40,서울특별시 종로구 낙산길 250,7010000,서울특별시교육청,7061000,서울특별시중부교육지원청,2013-11-29,2025-10-25,37.58146865,127.0146228932,2026-03-20
B000003334,도산초등학교,초등학교,2006-03-01,공립,본교,운영,광주광역시 광산구 도산동 659-1,광주광역시 광산구 송정외로 6,7380000,광주광역시교육청,7401000,광주광역시서부교육지원청,2013-11-29,2025-10-25,35.1261929102,126.7917518,2026-03-20
B000008319,등명중학교,중학교,1995-05-06,공립,본교,운영,서울특별시 강서구 등촌동 690-4,서울특별시 강서구 공항대로39길 39,7010000,서울특별시교육청,7081300,서울특별시강서양천교육지원청,2013-11-29,2025-10-25,37.5601933511,126.843304087,2026-03-20
B000002255,서울서원초등학교,초등학교,1985-04-22,공립,본교,운영,서울특별시 서초구 반포동 30-8,서울특별시 서초구 고무래로 63,7010000,서울특별시교육청,7091300,서울특별시강남서초교육지원청,2013-11-29,2025-10-25,37.5024388979,127.0146194577,2026-03-20
B000005276,모충초등학교,초등학교,1968-09-30,공립,본교,운영,충청북도 청주시 서원구 모충동 372,충청북도 청주시 서원구 쌍샘로 49,8000000,충청북도교육청,8011000,충청북도청주교육지원청,2013-11-29,2025-10-25,36.6256894242,127.4783540238,2026-03-20
B000008707,대명중학교,중학교,1970-03-05,공립,본교,운영,대구광역시 남구 대명동 519,대구광역시 남구 앞산순환로 477,7240000,대구광역시교육청,7271000,대구광역시남부교육지원청,2013-11-29,2025-10-25,35.8330892197,128.5767451069,2026-03-20
B000002522,연지초등학교,초등학교,1962-03-09,공립,본교,운영,부산광역시 부산진구 연지동 238-4,부산광역시 부산진구 연지로 29,7150000,부산광역시교육청,7181000,부산광역시남부교육지원청,2013-11-29,2025-10-25,35.1727095041,129.0521377283,2026-03-20
B000025754,인천경연중학교,중학교,2020-03-01,공립,본교,운영,인천광역시 서구 청라동 84-2,인천광역시 서구 차오름로 64,7310000,인천광역시교육청,7361000,인천광역시서부교육지원청,2013-11-29,2025-10-25,37.538496511,126.6262362689,2026-03-20
B000008006,애월초등학교,초등학교,1923-09-04,공립,본교,운영,제주특별자치도 제주시 애월읍 애월리 1736,제주특별자치도 제주시 애월읍 애월로 139-10,9290000,제주특별자치도교육청,9296000,제주특별자치도제주시교육지원청,2013-11-29,2025-10-25,33.4654894858,126.3224061218,2026-03-20
B000012734,삼광고등학교,고등학교,1982-03-02,사립,본교,운영,경기도 파주시 적성면 식현리 284,경기도 파주시 적성면 청송로 701,7530000,경기도교육청,7681000,경기도파주교육지원청,2013-11-29,2025-10-25,37.9455777258,126.8855095108,2026-03-20
B000007019,김천부곡초등학교,초등학교,2001-03-01,공립,본교,운영,경상북도 김천시 부곡동 1512,경상북도 김천시 부곡맛고을1길 147,8750000,경상북도교육청,8781000,경상북도김천교육지원청,2013-11-29,2025-10-25,36.1248664105,128.0950564206,2026-03-20
B000023263,세종고등학교,고등학교,1926-10-06,공립,본교,운영,세종특별자치시 조치원읍 서창리 30-2,세종특별자치시 조치원읍 조치원중고길 10,9300000,세종특별자치시교육청,9300000,세종특별자치시교육청,2013-11-29,2025-10-25,36.6113262952,127.2989869596,2026-03-20
B000002608,연제초등학교,초등학교,1968-03-01,공립,본교,운영,부산광역시 연제구 연산동 1300,부산광역시 연제구 중앙대로1065번길 14,7150000,부산광역시교육청,7191000,부산광역시동래교육지원청,2013-11-29,2025-10-25,35.18405401,129.0778742,2026-03-20
B000011134,동부중학교,중학교,1960-05-01,공립,본교,운영,경상남도 거제시 동부면 산양리 348,경상남도 거제시 동부면 동부로 28-6,9010000,경상남도교육청,9111000,경상남도거제교육지원청,2013-11-29,2025-10-25,34.8208424414,128.6079629284,2026-03-20
B000011233,거창중학교고제분교장,중학교,1971-03-11,공립,분교,운영,경상남도 거창군 고제면 농산리 184,경상남도 거창군 고제면 고제로 48,9010000,경상남도교육청,9211000,경상남도거창교육지원청,2013-11-29,2025-10-25,35.8141241425,127.8735690845,2026-03-20
B000004997,인구초등학교,초등학교,1922-05-10,공립,본교,운영,강원특별자치도 양양군 현남면 인구리 27-2,강원특별자치도 양양군 현남면 해송천로 10,7801000,강원특별자치도교육청,7863000,강원특별자치도속초양양교육지원청,2013-11-29,2025-10-25,37.9680829996,128.7583978676,2026-03-20
B000007815,고암초등학교,초등학교,1926-09-13,공립,본교,운영,경상남도 창녕군 고암면 중대리 284,경상남도 창녕군 고암면 고암성산대로 6-5,9010000,경상남도교육청,9141000,경상남도창녕교육지원청,2013-11-29,2025-10-25,35.5776314422,128.5114791556,2026-03-20
B000012106,광명고등학교,고등학교,1989-03-01,사립,본교,운영,부산광역시 영도구 동삼동 226-118,부산광역시 영도구 와치로 131,7150000,부산광역시교육청,7171000,부산광역시서부교육지원청,2013-11-29,2025-10-25,35.0836654934,129.0646045439,2026-03-20
B000002808,대구두류초등학교,초등학교,1986-03-11,공립,본교,운영,대구광역시 서구 내당동 211-1,대구광역시 서구 달구벌대로357길 22,7240000,대구광역시교육청,7261000,대구광역시서부교육지원청,2013-11-29,2025-10-25,35.8616155185,128.5599761,2026-03-20
B000023177,구산고등학교,고등학교,2015-03-01,공립,본교,운영,경상남도 김해시 구산동 396,경상남도 김해시 가야로 311,9010000,경상남도교육청,9091000,경상남도김해교육지원청,2013-11-29,2025-10-25,35.2504435908,128.8756694063,2026-03-20
